<?xml version='1.0' encoding='utf-8'?>
<kml xmlns="http://www.opengis.net/kml/2.2"><Document><name>ALERTCalifornia / ALERTWest Cameras</name><Folder><name>Public Wildfire Cameras</name><Placemark><name>Axis-MtAukum1</name><description>
    &lt;![CDATA[
    &lt;b&gt;Axis-MtAukum1&lt;/b&gt;&lt;br&gt;
    County: eldorado CA&lt;br&gt;
    Pan/Azimuth: 200.23&lt;br&gt;
    &lt;a href="https://img.cdn.prod.alertwest.com/data/img/2148/2026/07/11/Mt_Aukum_1_1783752247_2989.jpg"&gt;Latest Camera Image&lt;/a&gt;
    ]]&gt;
    </description><Point><coordinates>-120.726982,38.573868,0</coordinates></Point></Placemark><Placemark><name>Axis-CoonHollow2</name><description>
    &lt;![CDATA[
    &lt;b&gt;Axis-CoonHollow2&lt;/b&gt;&lt;br&gt;
    County: eldorado CA&lt;br&gt;
    Pan/Azimuth: 132.63&lt;br&gt;
    &lt;a href="https://img.cdn.prod.alertwest.com/data/img/1906/2026/07/11/Coon_Hollow_2_1783752247_8631.jpg"&gt;Latest Camera Image&lt;/a&gt;
    ]]&gt;
    </description><Point><coordinates>-120.808357,38.723431,0</coordinates></Point></Placemark><Placemark><name>Axis-MtElizabeth2</name><description>
    &lt;![CDATA[
    &lt;b&gt;Axis-MtElizabeth2&lt;/b&gt;&lt;br&gt;
    County: Tuolumne CA&lt;br&gt;
    Pan/Azimuth: 248.59&lt;br&gt;
    &lt;a href="https://img.cdn.prod.alertwest.com/data/img/2160/2026/07/11/Mt_Elizabeth_2_1783752223_9259.jpg"&gt;Latest Camera Image&lt;/a&gt;
    ]]&gt;
    </description><Point><coordinates>-120.247307,38.063023,0</coordinates></Point></Placemark><Placemark><name>Axis-VolcanTractIIINorth</name><description>
    &lt;![CDATA[
    &lt;b&gt;Axis-VolcanTractIIINorth&lt;/b&gt;&lt;br&gt;
    County: SanDiego CA&lt;br&gt;
    Pan/Azimuth: 318.24&lt;br&gt;
    &lt;a href="https://img.cdn.prod.alertwest.com/data/img/2480/2026/07/11/Volcan_Tract_III_North_1783752240_9985.jpg"&gt;Latest Camera Image&lt;/a&gt;
    ]]&gt;
    </description><Point><coordinates>-116.617058,33.138256,0</coordinates></Point></Placemark><Placemark><name>Axis-RockCreek</name><description>
    &lt;![CDATA[
    &lt;b&gt;Axis-RockCreek&lt;/b&gt;&lt;br&gt;
    County: eldorado CA&lt;br&gt;
    Pan/Azimuth: 242.24&lt;br&gt;
    &lt;a href="https://img.cdn.prod.alertwest.com/data/img/2320/2026/07/11/Rock_Creek_1783752203_4377.jpg"&gt;Latest Camera Image&lt;/a&gt;
    ]]&gt;
    </description><Point><coordinates>-120.742035,38.796543,0</coordinates></Point></Placemark><Placemark><name>Axis-CummingsMtn1</name><description>
    &lt;![CDATA[
    &lt;b&gt;Axis-CummingsMtn1&lt;/b&gt;&lt;br&gt;
    County: Kern CA&lt;br&gt;
    Pan/Azimuth: 226.25&lt;br&gt;
    &lt;a href="https://img.cdn.prod.alertwest.com/data/img/1921/2026/07/11/Cummings_Mtn_1_1783752194_5524.jpg"&gt;Latest Camera Image&lt;/a&gt;
    ]]&gt;
    </description><Point><coordinates>-118.570206,35.041489,0</coordinates></Point></Placemark><Placemark><name>Axis-TelegraphHill</name><description>
    &lt;![CDATA[
    &lt;b&gt;Axis-TelegraphHill&lt;/b&gt;&lt;br&gt;
    County: Tuolumne CA&lt;br&gt;
    Pan/Azimuth: 316.03&lt;br&gt;
    &lt;a href="https://img.cdn.prod.alertwest.com/data/img/2444/2026/07/11/Telegraph_Hill_1_1783752240_9095.jpg"&gt;Latest Camera Image&lt;/a&gt;
    ]]&gt;
    </description><Point><coordinates>-120.351799,38.030800,0</coordinates></Point></Placemark><Placemark><name>Axis-DunlapAcres1</name><description>
    &lt;![CDATA[
    &lt;b&gt;Axis-DunlapAcres1&lt;/b&gt;&lt;br&gt;
    County: SanBernardino CA&lt;br&gt;
    Pan/Azimuth: 347.58&lt;br&gt;
    &lt;a href="https://img.cdn.prod.alertwest.com/data/img/2765/2026/07/11/Dunlap_Acres_1_1783752246_7536.jpg"&gt;Latest Camera Image&lt;/a&gt;
    ]]&gt;
    </description><Point><coordinates>-117.097948,34.044438,0</coordinates></Point></Placemark><Placemark><name>Axis-SearsPoint</name><description>
    &lt;![CDATA[
    &lt;b&gt;Axis-SearsPoint&lt;/b&gt;&lt;br&gt;
    County: Sonoma CA&lt;br&gt;
    Pan/Azimuth: 353.45&lt;br&gt;
    &lt;a href="https://img.cdn.prod.alertwest.com/data/img/2375/2026/07/11/Sears_Point_1783752244_1167.jpg"&gt;Latest Camera Image&lt;/a&gt;
    ]]&gt;
    </description><Point><coordinates>-122.463585,38.160400,0</coordinates></Point></Placemark><Placemark><name>Axis-Rockpile2</name><description>
    &lt;![CDATA[
    &lt;b&gt;Axis-Rockpile2&lt;/b&gt;&lt;br&gt;
    County: Sonoma CA&lt;br&gt;
    Pan/Azimuth: 135.34&lt;br&gt;
    &lt;a href="https://img.cdn.prod.alertwest.com/data/img/11025/2026/07/11/Rockpile_2_1783752248_1636.jpg"&gt;Latest Camera Image&lt;/a&gt;
    ]]&gt;
    </description><Point><coordinates>-123.053902,38.718899,0</coordinates></Point></Placemark><Placemark><name>Axis-WestProspect2</name><description>
    &lt;![CDATA[
    &lt;b&gt;Axis-WestProspect2&lt;/b&gt;&lt;br&gt;
    County: Shasta CA&lt;br&gt;
    Pan/Azimuth: 217.91&lt;br&gt;
    &lt;a href="https://img.cdn.prod.alertwest.com/data/img/11051/2026/07/11/West_Prospect_Peak_2_1783752245_4743.jpg"&gt;Latest Camera Image&lt;/a&gt;
    ]]&gt;
    </description><Point><coordinates>-121.379647,40.593918,0</coordinates></Point></Placemark><Placemark><name>Axis-Avalon1</name><description>
    &lt;![CDATA[
    &lt;b&gt;Axis-Avalon1&lt;/b&gt;&lt;br&gt;
    County: LosAngeles CA&lt;br&gt;
    Pan/Azimuth: 285.25&lt;br&gt;
    &lt;a href="https://img.cdn.prod.alertwest.com/data/img/1797/2026/07/11/Avalon_Catalina_1_1783752246_5820.jpg"&gt;Latest Camera Image&lt;/a&gt;
    ]]&gt;
    </description><Point><coordinates>-118.318413,33.339062,0</coordinates></Point></Placemark><Placemark><name>Axis-Ponderosa</name><description>
    &lt;![CDATA[
    &lt;b&gt;Axis-Ponderosa&lt;/b&gt;&lt;br&gt;
    County: Tuolumne CA&lt;br&gt;
    Pan/Azimuth: 96.20&lt;br&gt;
    &lt;a href="https://img.cdn.prod.alertwest.com/data/img/2268/2026/07/11/Ponderosa_1783752242_6641.jpg"&gt;Latest Camera Image&lt;/a&gt;
    ]]&gt;
    </description><Point><coordinates>-120.183594,37.824326,0</coordinates></Point></Placemark><Placemark><name>Axis-BlackMtnBoundary</name><description>
    &lt;![CDATA[
    &lt;b&gt;Axis-BlackMtnBoundary&lt;/b&gt;&lt;br&gt;
    County: Boundary ID&lt;br&gt;
    Pan/Azimuth: 327.46&lt;br&gt;
    &lt;a href="https://img.cdn.prod.alertwest.com/data/img/8598/2026/07/11/Black_Mtn_Boundary_1783752189_5078.jpg"&gt;Latest Camera Image&lt;/a&gt;
    ]]&gt;
    </description><Point><coordinates>-116.257748,48.610410,0</coordinates></Point></Placemark><Placemark><name>Axis-ShastaLake2</name><description>
    &lt;![CDATA[
    &lt;b&gt;Axis-ShastaLake2&lt;/b&gt;&lt;br&gt;
    County: Shasta CA&lt;br&gt;
    Pan/Azimuth: 142.92&lt;br&gt;
    &lt;a href="https://img.cdn.prod.alertwest.com/data/img/1683/2026/07/11/Shasta_Lake_2_1783752245_9825.jpg"&gt;Latest Camera Image&lt;/a&gt;
    ]]&gt;
    </description><Point><coordinates>-122.414551,40.657211,0</coordinates></Point></Placemark><Placemark><name>Axis-PleasantsWest2</name><description>
    &lt;![CDATA[
    &lt;b&gt;Axis-PleasantsWest2&lt;/b&gt;&lt;br&gt;
    County: Orange CA&lt;br&gt;
    Pan/Azimuth: 239.43&lt;br&gt;
    &lt;a href="https://img.cdn.prod.alertwest.com/data/img/2264/2026/07/11/Pleasants_West_2_1783752247_4144.jpg"&gt;Latest Camera Image&lt;/a&gt;
    ]]&gt;
    </description><Point><coordinates>-117.623802,33.797199,0</coordinates></Point></Placemark><Placemark><name>Axis-MtRodoni1</name><description>
    &lt;![CDATA[
    &lt;b&gt;Axis-MtRodoni1&lt;/b&gt;&lt;br&gt;
    County: SantaClara CA&lt;br&gt;
    Pan/Azimuth: 35.11&lt;br&gt;
    &lt;a href="https://img.cdn.prod.alertwest.com/data/img/2188/2026/07/11/Mt_Rodoni_1_1783752233_6878.jpg"&gt;Latest Camera Image&lt;/a&gt;
    ]]&gt;
    </description><Point><coordinates>-122.032600,37.218102,0</coordinates></Point></Placemark><Placemark><name>Axis-BarnabeEast</name><description>
    &lt;![CDATA[
    &lt;b&gt;Axis-BarnabeEast&lt;/b&gt;&lt;br&gt;
    County: Marin CA&lt;br&gt;
    Pan/Azimuth: 89.99&lt;br&gt;
    &lt;a href="https://img.cdn.prod.alertwest.com/data/img/1809/2026/07/11/Barnabe_Peak_East_1783752227_4495.jpg"&gt;Latest Camera Image&lt;/a&gt;
    ]]&gt;
    </description><Point><coordinates>-122.716362,38.026779,0</coordinates></Point></Placemark><Placemark><name>Axis-Henrietta</name><description>
    &lt;![CDATA[
    &lt;b&gt;Axis-Henrietta&lt;/b&gt;&lt;br&gt;
    County: SanBenito CA&lt;br&gt;
    Pan/Azimuth: 213.15&lt;br&gt;
    &lt;a href="https://img.cdn.prod.alertwest.com/data/img/2015/2026/07/11/Henrietta_Peak_1_1783752234_6987.jpg"&gt;Latest Camera Image&lt;/a&gt;
    ]]&gt;
    </description><Point><coordinates>-121.230103,36.903400,0</coordinates></Point></Placemark><Placemark><name>Axis-MarzanoPeak1</name><description>
    &lt;![CDATA[
    &lt;b&gt;Axis-MarzanoPeak1&lt;/b&gt;&lt;br&gt;
    County: Inyo CA&lt;br&gt;
    Pan/Azimuth: 253.21&lt;br&gt;
    &lt;a href="https://img.cdn.prod.alertwest.com/data/img/2101/2026/07/11/Marzano_Peak_1_1783752242_4338.jpg"&gt;Latest Camera Image&lt;/a&gt;
    ]]&gt;
    </description><Point><coordinates>-118.107498,37.205269,0</coordinates></Point></Placemark><Placemark><name>Axis-Montezuma</name><description>
    &lt;![CDATA[
    &lt;b&gt;Axis-Montezuma&lt;/b&gt;&lt;br&gt;
    County: Esmeralda NV&lt;br&gt;
    Pan/Azimuth: 312.87&lt;br&gt;
    &lt;a href="https://img.cdn.prod.alertwest.com/data/img/12215/2026/07/11/Montezuma_Pk_1783752248_7320.jpg"&gt;Latest Camera Image&lt;/a&gt;
    ]]&gt;
    </description><Point><coordinates>-117.383800,37.700800,0</coordinates></Point></Placemark><Placemark><name>Axis-BennettMtn</name><description>
    &lt;![CDATA[
    &lt;b&gt;Axis-BennettMtn&lt;/b&gt;&lt;br&gt;
    County: Elmore ID&lt;br&gt;
    Pan/Azimuth: 49.58&lt;br&gt;
    &lt;a href="https://img.cdn.prod.alertwest.com/data/img/12157/2026/07/11/Bennett_Mtn_ID_1783752201_5580.jpg"&gt;Latest Camera Image&lt;/a&gt;
    ]]&gt;
    </description><Point><coordinates>-115.434059,43.249199,0</coordinates></Point></Placemark><Placemark><name>Axis-MtnHighEast1</name><description>
    &lt;![CDATA[
    &lt;b&gt;Axis-MtnHighEast1&lt;/b&gt;&lt;br&gt;
    County: LosAngeles CA&lt;br&gt;
    Pan/Azimuth: 7.22&lt;br&gt;
    &lt;a href="https://img.cdn.prod.alertwest.com/data/img/2200/2026/07/11/Mtn_High_East_1_1783752245_1899.jpg"&gt;Latest Camera Image&lt;/a&gt;
    ]]&gt;
    </description><Point><coordinates>-117.682297,34.358002,0</coordinates></Point></Placemark><Placemark><name>Axis-OatNorth2</name><description>
    &lt;![CDATA[
    &lt;b&gt;Axis-OatNorth2&lt;/b&gt;&lt;br&gt;
    County: LosAngeles CA&lt;br&gt;
    Pan/Azimuth: 184.35&lt;br&gt;
    &lt;a href="https://img.cdn.prod.alertwest.com/data/img/2218/2026/07/11/Oat_Mtn_North_2_1783752246_8115.jpg"&gt;Latest Camera Image&lt;/a&gt;
    ]]&gt;
    </description><Point><coordinates>-118.584251,34.324558,0</coordinates></Point></Placemark><Placemark><name>Axis-Cohasset</name><description>
    &lt;![CDATA[
    &lt;b&gt;Axis-Cohasset&lt;/b&gt;&lt;br&gt;
    County: Butte CA&lt;br&gt;
    Pan/Azimuth: 108.36&lt;br&gt;
    &lt;a href="https://img.cdn.prod.alertwest.com/data/img/1896/2026/07/11/Cohasset_Hill_1_1783752247_1974.jpg"&gt;Latest Camera Image&lt;/a&gt;
    ]]&gt;
    </description><Point><coordinates>-121.714600,39.958332,0</coordinates></Point></Placemark><Placemark><name>Axis-Olancha1</name><description>
    &lt;![CDATA[
    &lt;b&gt;Axis-Olancha1&lt;/b&gt;&lt;br&gt;
    County: Inyo CA&lt;br&gt;
    Pan/Azimuth: 295.75&lt;br&gt;
    &lt;a href="https://img.cdn.prod.alertwest.com/data/img/2221/2026/07/11/Olancha_1_1783752242_9773.jpg"&gt;Latest Camera Image&lt;/a&gt;
    ]]&gt;
    </description><Point><coordinates>-118.007256,36.272499,0</coordinates></Point></Placemark><Placemark><name>Axis-PlowsharePeak</name><description>
    &lt;![CDATA[
    &lt;b&gt;Axis-PlowsharePeak&lt;/b&gt;&lt;br&gt;
    County: SantaBarbara CA&lt;br&gt;
    Pan/Azimuth: 52.63&lt;br&gt;
    &lt;a href="https://img.cdn.prod.alertwest.com/data/img/2265/2026/07/11/Plowshare_Peak_1783752202_2297.jpg"&gt;Latest Camera Image&lt;/a&gt;
    ]]&gt;
    </description><Point><coordinates>-120.041016,35.050068,0</coordinates></Point></Placemark><Placemark><name>Axis-PoplarLane</name><description>
    &lt;![CDATA[
    &lt;b&gt;Axis-PoplarLane&lt;/b&gt;&lt;br&gt;
    County: Sierra CA&lt;br&gt;
    Pan/Azimuth: 17.36&lt;br&gt;
    &lt;a href="https://img.cdn.prod.alertwest.com/data/img/1701/2026/07/11/Poplar_Lane_1_1783752237_2830.jpg"&gt;Latest Camera Image&lt;/a&gt;
    ]]&gt;
    </description><Point><coordinates>-121.003593,39.433624,0</coordinates></Point></Placemark><Placemark><name>Axis-MontebelloPreserve</name><description>
    &lt;![CDATA[
    &lt;b&gt;Axis-MontebelloPreserve&lt;/b&gt;&lt;br&gt;
    County: SantaClara CA&lt;br&gt;
    Pan/Azimuth: 216.16&lt;br&gt;
    &lt;a href="https://img.cdn.prod.alertwest.com/data/img/2136/2026/07/11/Montebello_Preserve_1783752242_4803.jpg"&gt;Latest Camera Image&lt;/a&gt;
    ]]&gt;
    </description><Point><coordinates>-122.167801,37.324726,0</coordinates></Point></Placemark><Placemark><name>Axis-SonoraEast</name><description>
    &lt;![CDATA[
    &lt;b&gt;Axis-SonoraEast&lt;/b&gt;&lt;br&gt;
    County: Tuolumne CA&lt;br&gt;
    Pan/Azimuth: 328.02&lt;br&gt;
    &lt;a href="https://img.cdn.prod.alertwest.com/data/img/2405/2026/07/11/Sonora_Peak_East_1783752248_1103.jpg"&gt;Latest Camera Image&lt;/a&gt;
    ]]&gt;
    </description><Point><coordinates>-120.402901,37.979900,0</coordinates></Point></Placemark><Placemark><name>Axis-SaintJohn1</name><description>
    &lt;![CDATA[
    &lt;b&gt;Axis-SaintJohn1&lt;/b&gt;&lt;br&gt;
    County: Glenn CA&lt;br&gt;
    Pan/Azimuth: 315.85&lt;br&gt;
    &lt;a href="https://img.cdn.prod.alertwest.com/data/img/1731/2026/07/11/Saint_John_Mtn_1_1783752234_8269.jpg"&gt;Latest Camera Image&lt;/a&gt;
    ]]&gt;
    </description><Point><coordinates>-122.693298,39.433952,0</coordinates></Point></Placemark><Placemark><name>Axis-PineMtnKern2</name><description>
    &lt;![CDATA[
    &lt;b&gt;Axis-PineMtnKern2&lt;/b&gt;&lt;br&gt;
    County: Kern CA&lt;br&gt;
    Pan/Azimuth: 142.36&lt;br&gt;
    &lt;a href="https://img.cdn.prod.alertwest.com/data/img/2257/2026/07/11/Pine_Mtn_Kern_2_1783752210_3136.jpg"&gt;Latest Camera Image&lt;/a&gt;
    ]]&gt;
    </description><Point><coordinates>-118.771759,35.561169,0</coordinates></Point></Placemark><Placemark><name>Axis-InskipHill2</name><description>
    &lt;![CDATA[
    &lt;b&gt;Axis-InskipHill2&lt;/b&gt;&lt;br&gt;
    County: Tehama CA&lt;br&gt;
    Pan/Azimuth: 113.29&lt;br&gt;
    &lt;a href="https://img.cdn.prod.alertwest.com/data/img/2691/2026/07/11/Inskip_Hill_2_1783752201_9216.jpg"&gt;Latest Camera Image&lt;/a&gt;
    ]]&gt;
    </description><Point><coordinates>-121.945000,40.346111,0</coordinates></Point></Placemark><Placemark><name>Axis-GreenSouth</name><description>
    &lt;![CDATA[
    &lt;b&gt;Axis-GreenSouth&lt;/b&gt;&lt;br&gt;
    County: LosAngeles CA&lt;br&gt;
    Pan/Azimuth: 259.13&lt;br&gt;
    &lt;a href="https://img.cdn.prod.alertwest.com/data/img/1997/2026/07/11/Green_Peak_South_2_1783752234_6900.jpg"&gt;Latest Camera Image&lt;/a&gt;
    ]]&gt;
    </description><Point><coordinates>-118.548820,34.086380,0</coordinates></Point></Placemark><Placemark><name>Warehouse_test</name><description>
    &lt;![CDATA[
    &lt;b&gt;Warehouse_test&lt;/b&gt;&lt;br&gt;
    County:  CA&lt;br&gt;
    Pan/Azimuth: &lt;br&gt;
    &lt;a href=""&gt;Latest Camera Image&lt;/a&gt;
    ]]&gt;
    </description><Point><coordinates>-121.852160,39.802430,0</coordinates></Point></Placemark><Placemark><name>Axis-TVHillMontecito1</name><description>
    &lt;![CDATA[
    &lt;b&gt;Axis-TVHillMontecito1&lt;/b&gt;&lt;br&gt;
    County: SantaBarbara CA&lt;br&gt;
    Pan/Azimuth: 55.49&lt;br&gt;
    &lt;a href="https://img.cdn.prod.alertwest.com/data/img/2749/2026/07/11/TV_Hill_1_1783752239_1435.jpg"&gt;Latest Camera Image&lt;/a&gt;
    ]]&gt;
    </description><Point><coordinates>-119.707666,34.410148,0</coordinates></Point></Placemark><Placemark><name>Axis-SaddlebackLookout2</name><description>
    &lt;![CDATA[
    &lt;b&gt;Axis-SaddlebackLookout2&lt;/b&gt;&lt;br&gt;
    County: Sierra CA&lt;br&gt;
    Pan/Azimuth: 53.62&lt;br&gt;
    &lt;a href="https://img.cdn.prod.alertwest.com/data/img/1713/2026/07/11/Saddleback_Lookout_2_1783752218_1820.jpg"&gt;Latest Camera Image&lt;/a&gt;
    ]]&gt;
    </description><Point><coordinates>-120.864403,39.636600,0</coordinates></Point></Placemark><Placemark><name>Axis-Prospect</name><description>
    &lt;![CDATA[
    &lt;b&gt;Axis-Prospect&lt;/b&gt;&lt;br&gt;
    County: Eureka NV&lt;br&gt;
    Pan/Azimuth: 314.00&lt;br&gt;
    &lt;a href="https://img.cdn.prod.alertwest.com/data/img/12221/2026/07/11/Prospect_Peak_1783752242_2517.jpg"&gt;Latest Camera Image&lt;/a&gt;
    ]]&gt;
    </description><Point><coordinates>-115.998741,39.449730,0</coordinates></Point></Placemark><Placemark><name>Axis-MtDisappointment2</name><description>
    &lt;![CDATA[
    &lt;b&gt;Axis-MtDisappointment2&lt;/b&gt;&lt;br&gt;
    County: LosAngeles CA&lt;br&gt;
    Pan/Azimuth: 256.08&lt;br&gt;
    &lt;a href="https://img.cdn.prod.alertwest.com/data/img/8560/2026/07/11/Mt_Disappointment_2_1783752244_1268.jpg"&gt;Latest Camera Image&lt;/a&gt;
    ]]&gt;
    </description><Point><coordinates>-118.105000,34.246600,0</coordinates></Point></Placemark><Placemark><name>Axis-BloomerLookout2</name><description>
    &lt;![CDATA[
    &lt;b&gt;Axis-BloomerLookout2&lt;/b&gt;&lt;br&gt;
    County: Butte CA&lt;br&gt;
    Pan/Azimuth: 274.23&lt;br&gt;
    &lt;a href="https://img.cdn.prod.alertwest.com/data/img/1619/2026/07/11/Bloomer_Lookout_2_1783752239_1062.jpg"&gt;Latest Camera Image&lt;/a&gt;
    ]]&gt;
    </description><Point><coordinates>-121.463402,39.651001,0</coordinates></Point></Placemark><Placemark><name>Axis-ForestHill1</name><description>
    &lt;![CDATA[
    &lt;b&gt;Axis-ForestHill1&lt;/b&gt;&lt;br&gt;
    County: Placer CA&lt;br&gt;
    Pan/Azimuth: 165.06&lt;br&gt;
    &lt;a href="https://img.cdn.prod.alertwest.com/data/img/2693/2026/07/11/PCWA_Forest_Hill_1_1783752239_1401.jpg"&gt;Latest Camera Image&lt;/a&gt;
    ]]&gt;
    </description><Point><coordinates>-120.811758,39.018964,0</coordinates></Point></Placemark><Placemark><name>Axis-MtBurdellSouth1</name><description>
    &lt;![CDATA[
    &lt;b&gt;Axis-MtBurdellSouth1&lt;/b&gt;&lt;br&gt;
    County: Marin CA&lt;br&gt;
    Pan/Azimuth: 270.57&lt;br&gt;
    &lt;a href="https://img.cdn.prod.alertwest.com/data/img/2668/2026/07/11/Mt_Burdell_South_1783752209_7884.jpg"&gt;Latest Camera Image&lt;/a&gt;
    ]]&gt;
    </description><Point><coordinates>-122.594031,38.145003,0</coordinates></Point></Placemark><Placemark><name>Axis-RockyPoint1</name><description>
    &lt;![CDATA[
    &lt;b&gt;Axis-RockyPoint1&lt;/b&gt;&lt;br&gt;
    County: Kern CA&lt;br&gt;
    Pan/Azimuth: 166.65&lt;br&gt;
    &lt;a href="https://img.cdn.prod.alertwest.com/data/img/2327/2026/07/11/Rocky_Point_1_1783752248_4701.jpg"&gt;Latest Camera Image&lt;/a&gt;
    ]]&gt;
    </description><Point><coordinates>-118.420700,35.686901,0</coordinates></Point></Placemark><Placemark><name>Axis-Winters1</name><description>
    &lt;![CDATA[
    &lt;b&gt;Axis-Winters1&lt;/b&gt;&lt;br&gt;
    County: Yolo CA&lt;br&gt;
    Pan/Azimuth: 107.21&lt;br&gt;
    &lt;a href="https://img.cdn.prod.alertwest.com/data/img/2516/2026/07/11/Winters_1_1783752197_3793.jpg"&gt;Latest Camera Image&lt;/a&gt;
    ]]&gt;
    </description><Point><coordinates>-121.983101,38.521198,0</coordinates></Point></Placemark><Placemark><name>Axis-BearMtnShasta</name><description>
    &lt;![CDATA[
    &lt;b&gt;Axis-BearMtnShasta&lt;/b&gt;&lt;br&gt;
    County: Shasta CA&lt;br&gt;
    Pan/Azimuth: 214.81&lt;br&gt;
    &lt;a href="https://img.cdn.prod.alertwest.com/data/img/1616/2026/07/11/Bear_Mtn_Shasta_1_1783752206_4022.jpg"&gt;Latest Camera Image&lt;/a&gt;
    ]]&gt;
    </description><Point><coordinates>-122.268158,40.719906,0</coordinates></Point></Placemark><Placemark><name>Axis-MtArarat1</name><description>
    &lt;![CDATA[
    &lt;b&gt;Axis-MtArarat1&lt;/b&gt;&lt;br&gt;
    County: eldorado CA&lt;br&gt;
    Pan/Azimuth: 52.97&lt;br&gt;
    &lt;a href="https://img.cdn.prod.alertwest.com/data/img/2696/2026/07/11/Mt_Ararat_1_1783752241_6883.jpg"&gt;Latest Camera Image&lt;/a&gt;
    ]]&gt;
    </description><Point><coordinates>-120.940079,38.853045,0</coordinates></Point></Placemark><Placemark><name>Axis-SunolRidge1</name><description>
    &lt;![CDATA[
    &lt;b&gt;Axis-SunolRidge1&lt;/b&gt;&lt;br&gt;
    County: Alameda CA&lt;br&gt;
    Pan/Azimuth: 57.49&lt;br&gt;
    &lt;a href="https://img.cdn.prod.alertwest.com/data/img/2600/2026/07/11/Sunol_Ridge_1783752239_3623.jpg"&gt;Latest Camera Image&lt;/a&gt;
    ]]&gt;
    </description><Point><coordinates>-121.922154,37.620219,0</coordinates></Point></Placemark><Placemark><name>Axis-NOAA</name><description>
    &lt;![CDATA[
    &lt;b&gt;Axis-NOAA&lt;/b&gt;&lt;br&gt;
    County: Washoe NV&lt;br&gt;
    Pan/Azimuth: 305.31&lt;br&gt;
    &lt;a href="https://img.cdn.prod.alertwest.com/data/img/12219/2026/07/11/NOAA_Reno_NV_1783752243_8584.jpg"&gt;Latest Camera Image&lt;/a&gt;
    ]]&gt;
    </description><Point><coordinates>-119.795860,39.568230,0</coordinates></Point></Placemark><Placemark><name>Axis-AtascaderoHwy412</name><description>
    &lt;![CDATA[
    &lt;b&gt;Axis-AtascaderoHwy412&lt;/b&gt;&lt;br&gt;
    County: SanLuisObispo CA&lt;br&gt;
    Pan/Azimuth: 53.01&lt;br&gt;
    &lt;a href="https://img.cdn.prod.alertwest.com/data/img/1794/2026/07/11/Atascadero_HWY41_2_1783752234_2415.jpg"&gt;Latest Camera Image&lt;/a&gt;
    ]]&gt;
    </description><Point><coordinates>-120.746254,35.454735,0</coordinates></Point></Placemark><Placemark><name>Axis-SugarloafRidge</name><description>
    &lt;![CDATA[
    &lt;b&gt;Axis-SugarloafRidge&lt;/b&gt;&lt;br&gt;
    County: Solano CA&lt;br&gt;
    Pan/Azimuth: 228.01&lt;br&gt;
    &lt;a href="https://img.cdn.prod.alertwest.com/data/img/2422/2026/07/11/Sugarloaf_Ridge_1783752195_9716.jpg"&gt;Latest Camera Image&lt;/a&gt;
    ]]&gt;
    </description><Point><coordinates>-122.216599,38.264198,0</coordinates></Point></Placemark><Placemark><name>Dyer_8_Thermal</name><description>
    &lt;![CDATA[
    &lt;b&gt;Dyer_8_Thermal&lt;/b&gt;&lt;br&gt;
    County:  CA&lt;br&gt;
    Pan/Azimuth: &lt;br&gt;
    &lt;a href=""&gt;Latest Camera Image&lt;/a&gt;
    ]]&gt;
    </description><Point><coordinates>-121.032791,40.239021,0</coordinates></Point></Placemark><Placemark><name>Axis-MtDanaher</name><description>
    &lt;![CDATA[
    &lt;b&gt;Axis-MtDanaher&lt;/b&gt;&lt;br&gt;
    County: El Dorado CA&lt;br&gt;
    Pan/Azimuth: 261.25&lt;br&gt;
    &lt;a href="https://img.cdn.prod.alertwest.com/data/img/2155/2026/07/11/Mt_Danaher_1783752223_2568.jpg"&gt;Latest Camera Image&lt;/a&gt;
    ]]&gt;
    </description><Point><coordinates>-120.667603,38.744701,0</coordinates></Point></Placemark><Placemark><name>Axis-AlderHill</name><description>
    &lt;![CDATA[
    &lt;b&gt;Axis-AlderHill&lt;/b&gt;&lt;br&gt;
    County: Nevada CA&lt;br&gt;
    Pan/Azimuth: 54.70&lt;br&gt;
    &lt;a href="https://img.cdn.prod.alertwest.com/data/img/1781/2026/07/11/Alder_Hill_1783752217_8538.jpg"&gt;Latest Camera Image&lt;/a&gt;
    ]]&gt;
    </description><Point><coordinates>-120.195396,39.352402,0</coordinates></Point></Placemark><Placemark><name>Axis-WildFrontier1</name><description>
    &lt;![CDATA[
    &lt;b&gt;Axis-WildFrontier1&lt;/b&gt;&lt;br&gt;
    County: DelNorte CA&lt;br&gt;
    Pan/Azimuth: 253.61&lt;br&gt;
    &lt;a href="https://img.cdn.prod.alertwest.com/data/img/2503/2026/07/11/Wild_Frontier_1_1783752231_8284.jpg"&gt;Latest Camera Image&lt;/a&gt;
    ]]&gt;
    </description><Point><coordinates>-123.876801,41.830299,0</coordinates></Point></Placemark><Placemark><name>Axis-TVHillMontecito2</name><description>
    &lt;![CDATA[
    &lt;b&gt;Axis-TVHillMontecito2&lt;/b&gt;&lt;br&gt;
    County: SantaBarbara CA&lt;br&gt;
    Pan/Azimuth: 2.36&lt;br&gt;
    &lt;a href="https://img.cdn.prod.alertwest.com/data/img/2748/2026/07/11/TV_Hill_2_1783752247_6531.jpg"&gt;Latest Camera Image&lt;/a&gt;
    ]]&gt;
    </description><Point><coordinates>-119.707666,34.410148,0</coordinates></Point></Placemark><Placemark><name>Axis-SkylineCollege</name><description>
    &lt;![CDATA[
    &lt;b&gt;Axis-SkylineCollege&lt;/b&gt;&lt;br&gt;
    County: SanMateo CA&lt;br&gt;
    Pan/Azimuth: 225.73&lt;br&gt;
    &lt;a href="https://img.cdn.prod.alertwest.com/data/img/2394/2026/07/11/Skyline_College_1783752236_4746.jpg"&gt;Latest Camera Image&lt;/a&gt;
    ]]&gt;
    </description><Point><coordinates>-122.469704,37.628502,0</coordinates></Point></Placemark><Placemark><name>Axis-Sanel2</name><description>
    &lt;![CDATA[
    &lt;b&gt;Axis-Sanel2&lt;/b&gt;&lt;br&gt;
    County: Mendocino CA&lt;br&gt;
    Pan/Azimuth: 77.50&lt;br&gt;
    &lt;a href="https://img.cdn.prod.alertwest.com/data/img/1716/2026/07/11/Mt_Sanel_2_1783752242_5181.jpg"&gt;Latest Camera Image&lt;/a&gt;
    ]]&gt;
    </description><Point><coordinates>-123.217400,38.948601,0</coordinates></Point></Placemark><Placemark><name>Axis-ShafferMtn</name><description>
    &lt;![CDATA[
    &lt;b&gt;Axis-ShafferMtn&lt;/b&gt;&lt;br&gt;
    County: Lassen CA&lt;br&gt;
    Pan/Azimuth: 162.80&lt;br&gt;
    &lt;a href="https://img.cdn.prod.alertwest.com/data/img/1719/2026/07/11/Shaffer_Mtn_1783752235_4525.jpg"&gt;Latest Camera Image&lt;/a&gt;
    ]]&gt;
    </description><Point><coordinates>-120.358002,40.446701,0</coordinates></Point></Placemark><Placemark><name>Axis-Loop2</name><description>
    &lt;![CDATA[
    &lt;b&gt;Axis-Loop2&lt;/b&gt;&lt;br&gt;
    County: LosAngeles CA&lt;br&gt;
    Pan/Azimuth: 298.32&lt;br&gt;
    &lt;a href="https://img.cdn.prod.alertwest.com/data/img/2057/2026/07/11/LACFD_Camp_Nine_Loop_2_1783752247_6640.jpg"&gt;Latest Camera Image&lt;/a&gt;
    ]]&gt;
    </description><Point><coordinates>-118.416656,34.353664,0</coordinates></Point></Placemark><Placemark><name>Axis-Rosamond</name><description>
    &lt;![CDATA[
    &lt;b&gt;Axis-Rosamond&lt;/b&gt;&lt;br&gt;
    County: Kern CA&lt;br&gt;
    Pan/Azimuth: 231.72&lt;br&gt;
    &lt;a href="https://img.cdn.prod.alertwest.com/data/img/2330/2026/07/11/Rosamond_1_1783752173_4986.jpg"&gt;Latest Camera Image&lt;/a&gt;
    ]]&gt;
    </description><Point><coordinates>-118.162430,34.880596,0</coordinates></Point></Placemark><Placemark><name>Axis-CaliforniaValley1</name><description>
    &lt;![CDATA[
    &lt;b&gt;Axis-CaliforniaValley1&lt;/b&gt;&lt;br&gt;
    County: SanLuisObispo CA&lt;br&gt;
    Pan/Azimuth: 276.93&lt;br&gt;
    &lt;a href="https://img.cdn.prod.alertwest.com/data/img/1870/2026/07/11/California_Valley_1_1783752210_8519.jpg"&gt;Latest Camera Image&lt;/a&gt;
    ]]&gt;
    </description><Point><coordinates>-119.989380,35.270920,0</coordinates></Point></Placemark><Placemark><name>Axis-GypsumSouth2</name><description>
    &lt;![CDATA[
    &lt;b&gt;Axis-GypsumSouth2&lt;/b&gt;&lt;br&gt;
    County: Orange CA&lt;br&gt;
    Pan/Azimuth: 159.00&lt;br&gt;
    &lt;a href="https://img.cdn.prod.alertwest.com/data/img/11092/2026/07/11/Gypsum_Canyon_South_2_1783752242_2339.jpg"&gt;Latest Camera Image&lt;/a&gt;
    ]]&gt;
    </description><Point><coordinates>-117.720049,33.856380,0</coordinates></Point></Placemark><Placemark><name>Axis-CarolDrive2</name><description>
    &lt;![CDATA[
    &lt;b&gt;Axis-CarolDrive2&lt;/b&gt;&lt;br&gt;
    County: SantaClara CA&lt;br&gt;
    Pan/Azimuth: 357.68&lt;br&gt;
    &lt;a href="https://img.cdn.prod.alertwest.com/data/img/1882/2026/07/11/Carol_Drive_Santa_Clara_2_1783752211_3503.jpg"&gt;Latest Camera Image&lt;/a&gt;
    ]]&gt;
    </description><Point><coordinates>-121.865799,37.287498,0</coordinates></Point></Placemark><Placemark><name>Axis-Escabroso2</name><description>
    &lt;![CDATA[
    &lt;b&gt;Axis-Escabroso2&lt;/b&gt;&lt;br&gt;
    County: SanLuisObispo CA&lt;br&gt;
    Pan/Azimuth: 16.96&lt;br&gt;
    &lt;a href="https://img.cdn.prod.alertwest.com/data/img/1962/2026/07/11/Escabroso_2_1783752246_4318.jpg"&gt;Latest Camera Image&lt;/a&gt;
    ]]&gt;
    </description><Point><coordinates>-120.730492,35.468498,0</coordinates></Point></Placemark><Placemark><name>Axis-BuenaVistaKern2</name><description>
    &lt;![CDATA[
    &lt;b&gt;Axis-BuenaVistaKern2&lt;/b&gt;&lt;br&gt;
    County: Kern CA&lt;br&gt;
    Pan/Azimuth: 70.18&lt;br&gt;
    &lt;a href="https://img.cdn.prod.alertwest.com/data/img/1866/2026/07/11/Buena_Vista_Kern_2_1783752247_8070.jpg"&gt;Latest Camera Image&lt;/a&gt;
    ]]&gt;
    </description><Point><coordinates>-119.485222,35.206783,0</coordinates></Point></Placemark><Placemark><name>Axis-SaintJohn2</name><description>
    &lt;![CDATA[
    &lt;b&gt;Axis-SaintJohn2&lt;/b&gt;&lt;br&gt;
    County: Glenn CA&lt;br&gt;
    Pan/Azimuth: 98.17&lt;br&gt;
    &lt;a href="https://img.cdn.prod.alertwest.com/data/img/1732/2026/07/11/Saint_John_Mtn_2_1783752240_3664.jpg"&gt;Latest Camera Image&lt;/a&gt;
    ]]&gt;
    </description><Point><coordinates>-122.693298,39.433952,0</coordinates></Point></Placemark><Placemark><name>Axis-Ducket2</name><description>
    &lt;![CDATA[
    &lt;b&gt;Axis-Ducket2&lt;/b&gt;&lt;br&gt;
    County: Shasta CA&lt;br&gt;
    Pan/Azimuth: 106.57&lt;br&gt;
    &lt;a href="https://img.cdn.prod.alertwest.com/data/img/1777/2026/07/11/Ducket_Peak_2_1783752240_3466.jpg"&gt;Latest Camera Image&lt;/a&gt;
    ]]&gt;
    </description><Point><coordinates>-122.640427,40.537281,0</coordinates></Point></Placemark><Placemark><name>Axis-OpalMtn</name><description>
    &lt;![CDATA[
    &lt;b&gt;Axis-OpalMtn&lt;/b&gt;&lt;br&gt;
    County: Clark NV&lt;br&gt;
    Pan/Azimuth: 153.89&lt;br&gt;
    &lt;a href="https://img.cdn.prod.alertwest.com/data/img/12220/2026/07/11/Opal_Mtn_1783752235_6668.jpg"&gt;Latest Camera Image&lt;/a&gt;
    ]]&gt;
    </description><Point><coordinates>-114.890400,35.701800,0</coordinates></Point></Placemark><Placemark><name>Axis-Hayfork2</name><description>
    &lt;![CDATA[
    &lt;b&gt;Axis-Hayfork2&lt;/b&gt;&lt;br&gt;
    County: Trinity CA&lt;br&gt;
    Pan/Azimuth: 205.24&lt;br&gt;
    &lt;a href="https://img.cdn.prod.alertwest.com/data/img/2010/2026/07/11/Hayfork_Divide_2_1783752231_8154.jpg"&gt;Latest Camera Image&lt;/a&gt;
    ]]&gt;
    </description><Point><coordinates>-123.084549,40.629166,0</coordinates></Point></Placemark><Placemark><name>Axis-BallardRidge1</name><description>
    &lt;![CDATA[
    &lt;b&gt;Axis-BallardRidge1&lt;/b&gt;&lt;br&gt;
    County: Modoc CA&lt;br&gt;
    Pan/Azimuth: 342.74&lt;br&gt;
    &lt;a href="https://img.cdn.prod.alertwest.com/data/img/2644/2026/07/11/Ballard_Ridge_1_1783752201_2795.jpg"&gt;Latest Camera Image&lt;/a&gt;
    ]]&gt;
    </description><Point><coordinates>-120.839000,41.363000,0</coordinates></Point></Placemark><Placemark><name>Axis-BenBolte2</name><description>
    &lt;![CDATA[
    &lt;b&gt;Axis-BenBolte2&lt;/b&gt;&lt;br&gt;
    County: eldorado CA&lt;br&gt;
    Pan/Azimuth: 31.56&lt;br&gt;
    &lt;a href="https://img.cdn.prod.alertwest.com/data/img/1824/2026/07/11/Ben_Bolte_2_1783752237_7919.jpg"&gt;Latest Camera Image&lt;/a&gt;
    ]]&gt;
    </description><Point><coordinates>-121.025063,38.588039,0</coordinates></Point></Placemark><Placemark><name>Axis-ShastaSkiPark</name><description>
    &lt;![CDATA[
    &lt;b&gt;Axis-ShastaSkiPark&lt;/b&gt;&lt;br&gt;
    County: Siskiyou CA&lt;br&gt;
    Pan/Azimuth: 226.57&lt;br&gt;
    &lt;a href="https://img.cdn.prod.alertwest.com/data/img/1682/2026/07/11/Shasta_Ski_Park_1783752235_9032.jpg"&gt;Latest Camera Image&lt;/a&gt;
    ]]&gt;
    </description><Point><coordinates>-122.194739,41.325050,0</coordinates></Point></Placemark><Placemark><name>Axis-MtRodoni2</name><description>
    &lt;![CDATA[
    &lt;b&gt;Axis-MtRodoni2&lt;/b&gt;&lt;br&gt;
    County: SantaClara CA&lt;br&gt;
    Pan/Azimuth: 129.15&lt;br&gt;
    &lt;a href="https://img.cdn.prod.alertwest.com/data/img/2189/2026/07/11/Mt_Rodoni_2_1783752246_1050.jpg"&gt;Latest Camera Image&lt;/a&gt;
    ]]&gt;
    </description><Point><coordinates>-122.032600,37.218102,0</coordinates></Point></Placemark><Placemark><name>Axis-GarcesHwy1</name><description>
    &lt;![CDATA[
    &lt;b&gt;Axis-GarcesHwy1&lt;/b&gt;&lt;br&gt;
    County: Kern CA&lt;br&gt;
    Pan/Azimuth: 273.35&lt;br&gt;
    &lt;a href="https://img.cdn.prod.alertwest.com/data/img/1981/2026/07/11/Garces_HWY_1_1783752245_6117.jpg"&gt;Latest Camera Image&lt;/a&gt;
    ]]&gt;
    </description><Point><coordinates>-119.052780,35.761665,0</coordinates></Point></Placemark><Placemark><name>Axis-MeadowBrook2</name><description>
    &lt;![CDATA[
    &lt;b&gt;Axis-MeadowBrook2&lt;/b&gt;&lt;br&gt;
    County: eldorado CA&lt;br&gt;
    Pan/Azimuth: 53.82&lt;br&gt;
    &lt;a href="https://img.cdn.prod.alertwest.com/data/img/2112/2026/07/11/Meadowbrook_2_1783752248_3764.jpg"&gt;Latest Camera Image&lt;/a&gt;
    ]]&gt;
    </description><Point><coordinates>-120.821899,38.859600,0</coordinates></Point></Placemark><Placemark><name>Axis-BaldMtnClearwater</name><description>
    &lt;![CDATA[
    &lt;b&gt;Axis-BaldMtnClearwater&lt;/b&gt;&lt;br&gt;
    County: Clearwater ID&lt;br&gt;
    Pan/Azimuth: 224.99&lt;br&gt;
    &lt;a href="https://img.cdn.prod.alertwest.com/data/img/8565/2026/07/11/Bald_Mtn_Clearwater_1783752247_5120.jpg"&gt;Latest Camera Image&lt;/a&gt;
    ]]&gt;
    </description><Point><coordinates>-115.899454,46.575372,0</coordinates></Point></Placemark><Placemark><name>Axis-PrefumoCanyon2</name><description>
    &lt;![CDATA[
    &lt;b&gt;Axis-PrefumoCanyon2&lt;/b&gt;&lt;br&gt;
    County: SanLuisObispo CA&lt;br&gt;
    Pan/Azimuth: 359.71&lt;br&gt;
    &lt;a href="https://img.cdn.prod.alertwest.com/data/img/2276/2026/07/11/Prefumo_Canyon_2_1783752237_4798.jpg"&gt;Latest Camera Image&lt;/a&gt;
    ]]&gt;
    </description><Point><coordinates>-120.762711,35.252960,0</coordinates></Point></Placemark><Placemark><name>Axis-HappyCamp2</name><description>
    &lt;![CDATA[
    &lt;b&gt;Axis-HappyCamp2&lt;/b&gt;&lt;br&gt;
    County: Modoc CA&lt;br&gt;
    Pan/Azimuth: 84.14&lt;br&gt;
    &lt;a href="https://img.cdn.prod.alertwest.com/data/img/2751/2026/07/11/Happy_Camp_2_1783752232_2413.jpg"&gt;Latest Camera Image&lt;/a&gt;
    ]]&gt;
    </description><Point><coordinates>-121.110687,41.417673,0</coordinates></Point></Placemark><Placemark><name>Axis-SodaRidge1</name><description>
    &lt;![CDATA[
    &lt;b&gt;Axis-SodaRidge1&lt;/b&gt;&lt;br&gt;
    County: Siskiyou CA&lt;br&gt;
    Pan/Azimuth: 69.50&lt;br&gt;
    &lt;a href="https://img.cdn.prod.alertwest.com/data/img/1729/2026/07/11/Soda_Ridge_1_1783752240_5323.jpg"&gt;Latest Camera Image&lt;/a&gt;
    ]]&gt;
    </description><Point><coordinates>-122.242111,41.224876,0</coordinates></Point></Placemark><Placemark><name>Axis-Pepperwood1</name><description>
    &lt;![CDATA[
    &lt;b&gt;Axis-Pepperwood1&lt;/b&gt;&lt;br&gt;
    County: Sonoma CA&lt;br&gt;
    Pan/Azimuth: &lt;br&gt;
    &lt;a href=""&gt;Latest Camera Image&lt;/a&gt;
    ]]&gt;
    </description><Point><coordinates>-122.703773,38.582798,0</coordinates></Point></Placemark><Placemark><name>Axis-Weed1</name><description>
    &lt;![CDATA[
    &lt;b&gt;Axis-Weed1&lt;/b&gt;&lt;br&gt;
    County: Siskiyou CA&lt;br&gt;
    Pan/Azimuth: 237.26&lt;br&gt;
    &lt;a href="https://img.cdn.prod.alertwest.com/data/img/1603/2026/07/11/Weed_1_1783752201_8150.jpg"&gt;Latest Camera Image&lt;/a&gt;
    ]]&gt;
    </description><Point><coordinates>-122.397469,41.435280,0</coordinates></Point></Placemark><Placemark><name>Axis-OregonMt2</name><description>
    &lt;![CDATA[
    &lt;b&gt;Axis-OregonMt2&lt;/b&gt;&lt;br&gt;
    County: Trinity CA&lt;br&gt;
    Pan/Azimuth: 277.54&lt;br&gt;
    &lt;a href="https://img.cdn.prod.alertwest.com/data/img/2228/2026/07/11/Oregon_Mtn_2_1783752188_9211.jpg"&gt;Latest Camera Image&lt;/a&gt;
    ]]&gt;
    </description><Point><coordinates>-122.980698,40.718582,0</coordinates></Point></Placemark><Placemark><name>Axis-Osborn1</name><description>
    &lt;![CDATA[
    &lt;b&gt;Axis-Osborn1&lt;/b&gt;&lt;br&gt;
    County: Sonoma CA&lt;br&gt;
    Pan/Azimuth: 209.26&lt;br&gt;
    &lt;a href="https://img.cdn.prod.alertwest.com/data/img/11022/2026/07/11/Osborn_Preserve_1_1783752235_9845.jpg"&gt;Latest Camera Image&lt;/a&gt;
    ]]&gt;
    </description><Point><coordinates>-122.591003,38.353607,0</coordinates></Point></Placemark><Placemark><name>Axis-BallRock</name><description>
    &lt;![CDATA[
    &lt;b&gt;Axis-BallRock&lt;/b&gt;&lt;br&gt;
    County: Tehama CA&lt;br&gt;
    Pan/Azimuth: 19.26&lt;br&gt;
    &lt;a href="https://img.cdn.prod.alertwest.com/data/img/2527/2026/07/11/Ball_Rock_1783752246_2429.jpg"&gt;Latest Camera Image&lt;/a&gt;
    ]]&gt;
    </description><Point><coordinates>-122.741249,39.967667,0</coordinates></Point></Placemark><Placemark><name>Axis-ChimneyPeak</name><description>
    &lt;![CDATA[
    &lt;b&gt;Axis-ChimneyPeak&lt;/b&gt;&lt;br&gt;
    County: Washoe NV&lt;br&gt;
    Pan/Azimuth: 330.86&lt;br&gt;
    &lt;a href="https://img.cdn.prod.alertwest.com/data/img/12188/2026/07/11/Chimney_Peak_1783752237_7555.jpg"&gt;Latest Camera Image&lt;/a&gt;
    ]]&gt;
    </description><Point><coordinates>-119.958244,39.460079,0</coordinates></Point></Placemark><Placemark><name>Axis-Hopland2</name><description>
    &lt;![CDATA[
    &lt;b&gt;Axis-Hopland2&lt;/b&gt;&lt;br&gt;
    County: Mendocino CA&lt;br&gt;
    Pan/Azimuth: 162.19&lt;br&gt;
    &lt;a href="https://img.cdn.prod.alertwest.com/data/img/1753/2026/07/11/Hopland_2_1783752248_1851.jpg"&gt;Latest Camera Image&lt;/a&gt;
    ]]&gt;
    </description><Point><coordinates>-123.083336,38.997311,0</coordinates></Point></Placemark><Placemark><name>Axis-DeerCreekHwy1</name><description>
    &lt;![CDATA[
    &lt;b&gt;Axis-DeerCreekHwy1&lt;/b&gt;&lt;br&gt;
    County: Butte CA&lt;br&gt;
    Pan/Azimuth: 297.90&lt;br&gt;
    &lt;a href="https://img.cdn.prod.alertwest.com/data/img/1758/2026/07/11/Deer_Creek_HWY_1_1783752245_2222.jpg"&gt;Latest Camera Image&lt;/a&gt;
    ]]&gt;
    </description><Point><coordinates>-121.759033,39.751225,0</coordinates></Point></Placemark><Placemark><name>Axis-PilotPeak</name><description>
    &lt;![CDATA[
    &lt;b&gt;Axis-PilotPeak&lt;/b&gt;&lt;br&gt;
    County: Mineral NV&lt;br&gt;
    Pan/Azimuth: 259.63&lt;br&gt;
    &lt;a href="https://img.cdn.prod.alertwest.com/data/img/12170/2026/07/11/Pilot_Peak_NV_1783752241_3708.jpg"&gt;Latest Camera Image&lt;/a&gt;
    ]]&gt;
    </description><Point><coordinates>-117.974220,38.342892,0</coordinates></Point></Placemark><Placemark><name>Axis-TVHill</name><description>
    &lt;![CDATA[
    &lt;b&gt;Axis-TVHill&lt;/b&gt;&lt;br&gt;
    County: Mineral NV&lt;br&gt;
    Pan/Azimuth: 157.93&lt;br&gt;
    &lt;a href="https://img.cdn.prod.alertwest.com/data/img/12233/2026/07/11/TV_Hill_1783752242_5619.jpg"&gt;Latest Camera Image&lt;/a&gt;
    ]]&gt;
    </description><Point><coordinates>-118.764999,38.457001,0</coordinates></Point></Placemark><Placemark><name>Axis-Cambria2</name><description>
    &lt;![CDATA[
    &lt;b&gt;Axis-Cambria2&lt;/b&gt;&lt;br&gt;
    County: SanLuisObispo CA&lt;br&gt;
    Pan/Azimuth: 115.16&lt;br&gt;
    &lt;a href="https://img.cdn.prod.alertwest.com/data/img/2657/2026/07/11/Cambria_2_1783752246_5071.jpg"&gt;Latest Camera Image&lt;/a&gt;
    ]]&gt;
    </description><Point><coordinates>-121.060225,35.527944,0</coordinates></Point></Placemark><Placemark><name>Axis-HawkeyeRanch</name><description>
    &lt;![CDATA[
    &lt;b&gt;Axis-HawkeyeRanch&lt;/b&gt;&lt;br&gt;
    County: Mendocino CA&lt;br&gt;
    Pan/Azimuth: 240.90&lt;br&gt;
    &lt;a href="https://img.cdn.prod.alertwest.com/data/img/2007/2026/07/11/Hawkeye_Ranch_1783752189_2067.jpg"&gt;Latest Camera Image&lt;/a&gt;
    ]]&gt;
    </description><Point><coordinates>-123.447830,39.086243,0</coordinates></Point></Placemark><Placemark><name>Axis-Babbitt</name><description>
    &lt;![CDATA[
    &lt;b&gt;Axis-Babbitt&lt;/b&gt;&lt;br&gt;
    County: Sierra CA&lt;br&gt;
    Pan/Azimuth: 317.70&lt;br&gt;
    &lt;a href="https://img.cdn.prod.alertwest.com/data/img/1799/2026/07/11/Babbitt_Peak_1783752243_2946.jpg"&gt;Latest Camera Image&lt;/a&gt;
    ]]&gt;
    </description><Point><coordinates>-120.105804,39.601974,0</coordinates></Point></Placemark><Placemark><name>Axis-RedwoodCity1</name><description>
    &lt;![CDATA[
    &lt;b&gt;Axis-RedwoodCity1&lt;/b&gt;&lt;br&gt;
    County: SanMateo CA&lt;br&gt;
    Pan/Azimuth: 214.56&lt;br&gt;
    &lt;a href="https://img.cdn.prod.alertwest.com/data/img/11097/2026/07/11/Redwood_City_1_1783752221_9927.jpg"&gt;Latest Camera Image&lt;/a&gt;
    ]]&gt;
    </description><Point><coordinates>-122.230957,37.488216,0</coordinates></Point></Placemark><Placemark><name>Axis-JonesRidge</name><description>
    &lt;![CDATA[
    &lt;b&gt;Axis-JonesRidge&lt;/b&gt;&lt;br&gt;
    County: Nevada CA&lt;br&gt;
    Pan/Azimuth: 302.26&lt;br&gt;
    &lt;a href="https://img.cdn.prod.alertwest.com/data/img/1671/2026/07/11/Jones_Ridge_1783752247_6860.jpg"&gt;Latest Camera Image&lt;/a&gt;
    ]]&gt;
    </description><Point><coordinates>-120.937103,39.220203,0</coordinates></Point></Placemark><Placemark><name>Axis-RiversideRed1</name><description>
    &lt;![CDATA[
    &lt;b&gt;Axis-RiversideRed1&lt;/b&gt;&lt;br&gt;
    County: Riverside CA&lt;br&gt;
    Pan/Azimuth: 330.81&lt;br&gt;
    &lt;a href="https://img.cdn.prod.alertwest.com/data/img/2756/2026/07/11/Red_Mountain_Riverside_Co_North_1783752241_9481.jpg"&gt;Latest Camera Image&lt;/a&gt;
    ]]&gt;
    </description><Point><coordinates>-116.848000,33.629776,0</coordinates></Point></Placemark><Placemark><name>Axis-RockyRidge1</name><description>
    &lt;![CDATA[
    &lt;b&gt;Axis-RockyRidge1&lt;/b&gt;&lt;br&gt;
    County: ContraCosta CA&lt;br&gt;
    Pan/Azimuth: 81.87&lt;br&gt;
    &lt;a href="https://img.cdn.prod.alertwest.com/data/img/2329/2026/07/11/Rocky_Ridge_1_1783752206_2960.jpg"&gt;Latest Camera Image&lt;/a&gt;
    ]]&gt;
    </description><Point><coordinates>-122.062332,37.815887,0</coordinates></Point></Placemark><Placemark><name>Axis-Pike</name><description>
    &lt;![CDATA[
    &lt;b&gt;Axis-Pike&lt;/b&gt;&lt;br&gt;
    County: Yuba CA&lt;br&gt;
    Pan/Azimuth: 166.51&lt;br&gt;
    &lt;a href="https://img.cdn.prod.alertwest.com/data/img/2081/2026/07/07/Lohman_Ridge_Pike_1783463936_2167.jpg"&gt;Latest Camera Image&lt;/a&gt;
    ]]&gt;
    </description><Point><coordinates>-121.037498,39.424278,0</coordinates></Point></Placemark><Placemark><name>Axis-BrionesTabletop</name><description>
    &lt;![CDATA[
    &lt;b&gt;Axis-BrionesTabletop&lt;/b&gt;&lt;br&gt;
    County: ContraCosta CA&lt;br&gt;
    Pan/Azimuth: 41.39&lt;br&gt;
    &lt;a href="https://img.cdn.prod.alertwest.com/data/img/1855/2026/07/11/Briones_Tabletop_1783752241_1256.jpg"&gt;Latest Camera Image&lt;/a&gt;
    ]]&gt;
    </description><Point><coordinates>-122.123383,37.932339,0</coordinates></Point></Placemark><Placemark><name>Axis-Hauser1</name><description>
    &lt;![CDATA[
    &lt;b&gt;Axis-Hauser1&lt;/b&gt;&lt;br&gt;
    County: LosAngeles CA&lt;br&gt;
    Pan/Azimuth: 185.61&lt;br&gt;
    &lt;a href="https://img.cdn.prod.alertwest.com/data/img/2383/2026/07/11/Sierra_Pelona_1_1783752231_4132.jpg"&gt;Latest Camera Image&lt;/a&gt;
    ]]&gt;
    </description><Point><coordinates>-118.213120,34.547199,0</coordinates></Point></Placemark><Placemark><name>Axis-Crestline1</name><description>
    &lt;![CDATA[
    &lt;b&gt;Axis-Crestline1&lt;/b&gt;&lt;br&gt;
    County: SanBernardino CA&lt;br&gt;
    Pan/Azimuth: 33.04&lt;br&gt;
    &lt;a href="https://img.cdn.prod.alertwest.com/data/img/1911/2026/07/11/Crestline_Ridge_1_1783752246_7809.jpg"&gt;Latest Camera Image&lt;/a&gt;
    ]]&gt;
    </description><Point><coordinates>-117.314201,34.236500,0</coordinates></Point></Placemark><Placemark><name>Axis-NostalgiaBonsall2</name><description>
    &lt;![CDATA[
    &lt;b&gt;Axis-NostalgiaBonsall2&lt;/b&gt;&lt;br&gt;
    County: SanDiego CA&lt;br&gt;
    Pan/Azimuth: 179.24&lt;br&gt;
    &lt;a href="https://img.cdn.prod.alertwest.com/data/img/2212/2026/07/11/Nostalgia_Bonsall_2_1783752238_8260.jpg"&gt;Latest Camera Image&lt;/a&gt;
    ]]&gt;
    </description><Point><coordinates>-117.153915,33.305794,0</coordinates></Point></Placemark><Placemark><name>Axis-DyerMtn1</name><description>
    &lt;![CDATA[
    &lt;b&gt;Axis-DyerMtn1&lt;/b&gt;&lt;br&gt;
    County: Lassen CA&lt;br&gt;
    Pan/Azimuth: 91.90&lt;br&gt;
    &lt;a href="https://img.cdn.prod.alertwest.com/data/img/1642/2026/07/11/Dyer_Mtn_1_1783752245_3326.jpg"&gt;Latest Camera Image&lt;/a&gt;
    ]]&gt;
    </description><Point><coordinates>-121.032700,40.238998,0</coordinates></Point></Placemark><Placemark><name>Axis-DoeMillRd</name><description>
    &lt;![CDATA[
    &lt;b&gt;Axis-DoeMillRd&lt;/b&gt;&lt;br&gt;
    County: Butte CA&lt;br&gt;
    Pan/Azimuth: 72.09&lt;br&gt;
    &lt;a href="https://img.cdn.prod.alertwest.com/data/img/1638/2026/07/11/Doe_Mill_Road_1783752244_8200.jpg"&gt;Latest Camera Image&lt;/a&gt;
    ]]&gt;
    </description><Point><coordinates>-121.668144,39.815426,0</coordinates></Point></Placemark><Placemark><name>Axis-BoucherWest</name><description>
    &lt;![CDATA[
    &lt;b&gt;Axis-BoucherWest&lt;/b&gt;&lt;br&gt;
    County: SanDiego CA&lt;br&gt;
    Pan/Azimuth: 281.72&lt;br&gt;
    &lt;a href="https://img.cdn.prod.alertwest.com/data/img/1846/2026/07/11/Boucher_Hill_West_1783752232_7223.jpg"&gt;Latest Camera Image&lt;/a&gt;
    ]]&gt;
    </description><Point><coordinates>-116.919800,33.334606,0</coordinates></Point></Placemark><Placemark><name>Axis-HallsRidge2</name><description>
    &lt;![CDATA[
    &lt;b&gt;Axis-HallsRidge2&lt;/b&gt;&lt;br&gt;
    County: Monterey CA&lt;br&gt;
    Pan/Azimuth: 59.75&lt;br&gt;
    &lt;a href="https://img.cdn.prod.alertwest.com/data/img/2687/2026/07/11/Halls_Ridge_2_1783752245_2584.jpg"&gt;Latest Camera Image&lt;/a&gt;
    ]]&gt;
    </description><Point><coordinates>-121.825806,36.457556,0</coordinates></Point></Placemark><Placemark><name>Axis-Woodson</name><description>
    &lt;![CDATA[
    &lt;b&gt;Axis-Woodson&lt;/b&gt;&lt;br&gt;
    County: SanDiego CA&lt;br&gt;
    Pan/Azimuth: 97.33&lt;br&gt;
    &lt;a href="https://img.cdn.prod.alertwest.com/data/img/2197/2026/07/11/Mt_Woodson_1783752210_2194.jpg"&gt;Latest Camera Image&lt;/a&gt;
    ]]&gt;
    </description><Point><coordinates>-116.970917,33.008732,0</coordinates></Point></Placemark><Placemark><name>Grass_Mtn_2</name><description>
    &lt;![CDATA[
    &lt;b&gt;Grass_Mtn_2&lt;/b&gt;&lt;br&gt;
    County: SantaBarbara CA&lt;br&gt;
    Pan/Azimuth: 239.66&lt;br&gt;
    &lt;a href="https://img.cdn.prod.alertwest.com/data/img/1994/2025/02/05/Grass_Mtn_2_1738782507_6801.jpg"&gt;Latest Camera Image&lt;/a&gt;
    ]]&gt;
    </description><Point><coordinates>-120.065277,34.759689,0</coordinates></Point></Placemark><Placemark><name>Axis-Felicita</name><description>
    &lt;![CDATA[
    &lt;b&gt;Axis-Felicita&lt;/b&gt;&lt;br&gt;
    County: SanDiego CA&lt;br&gt;
    Pan/Azimuth: 120.18&lt;br&gt;
    &lt;a href="https://img.cdn.prod.alertwest.com/data/img/1969/2026/07/11/Felicita_San_Diego_1_1783752232_9821.jpg"&gt;Latest Camera Image&lt;/a&gt;
    ]]&gt;
    </description><Point><coordinates>-117.094604,33.083218,0</coordinates></Point></Placemark><Placemark><name>Axis-StHelenaNorth</name><description>
    &lt;![CDATA[
    &lt;b&gt;Axis-StHelenaNorth&lt;/b&gt;&lt;br&gt;
    County: Sonoma CA&lt;br&gt;
    Pan/Azimuth: 293.05&lt;br&gt;
    &lt;a href="https://img.cdn.prod.alertwest.com/data/img/2412/2026/07/11/St_Helena_North_1783752247_8961.jpg"&gt;Latest Camera Image&lt;/a&gt;
    ]]&gt;
    </description><Point><coordinates>-122.633400,38.669102,0</coordinates></Point></Placemark><Placemark><name>Axis-SawmillKern2</name><description>
    &lt;![CDATA[
    &lt;b&gt;Axis-SawmillKern2&lt;/b&gt;&lt;br&gt;
    County: Kern CA&lt;br&gt;
    Pan/Azimuth: 7.23&lt;br&gt;
    &lt;a href="https://img.cdn.prod.alertwest.com/data/img/2372/2026/07/11/Sawmill_Kern_2_1783752246_8824.jpg"&gt;Latest Camera Image&lt;/a&gt;
    ]]&gt;
    </description><Point><coordinates>-119.140663,34.839722,0</coordinates></Point></Placemark><Placemark><name>Axis-RainbowLake</name><description>
    &lt;![CDATA[
    &lt;b&gt;Axis-RainbowLake&lt;/b&gt;&lt;br&gt;
    County: Shasta CA&lt;br&gt;
    Pan/Azimuth: 270.18&lt;br&gt;
    &lt;a href="https://img.cdn.prod.alertwest.com/data/img/2287/2026/07/11/Rainbow_Lake_1783752237_9314.jpg"&gt;Latest Camera Image&lt;/a&gt;
    ]]&gt;
    </description><Point><coordinates>-122.689697,40.497200,0</coordinates></Point></Placemark><Placemark><name>Axis-BigValley1</name><description>
    &lt;![CDATA[
    &lt;b&gt;Axis-BigValley1&lt;/b&gt;&lt;br&gt;
    County: Lassen CA&lt;br&gt;
    Pan/Azimuth: 254.37&lt;br&gt;
    &lt;a href="https://img.cdn.prod.alertwest.com/data/img/2589/2026/07/11/Big_Valley_1_1783752248_2762.jpg"&gt;Latest Camera Image&lt;/a&gt;
    ]]&gt;
    </description><Point><coordinates>-121.223003,41.072064,0</coordinates></Point></Placemark><Placemark><name>Axis-SodaRidge2</name><description>
    &lt;![CDATA[
    &lt;b&gt;Axis-SodaRidge2&lt;/b&gt;&lt;br&gt;
    County: Siskiyou CA&lt;br&gt;
    Pan/Azimuth: 355.74&lt;br&gt;
    &lt;a href="https://img.cdn.prod.alertwest.com/data/img/1730/2026/07/11/Soda_Ridge_2_1783752247_6456.jpg"&gt;Latest Camera Image&lt;/a&gt;
    ]]&gt;
    </description><Point><coordinates>-122.242111,41.224876,0</coordinates></Point></Placemark><Placemark><name>Axis-Paynes</name><description>
    &lt;![CDATA[
    &lt;b&gt;Axis-Paynes&lt;/b&gt;&lt;br&gt;
    County: Yuba CA&lt;br&gt;
    Pan/Azimuth: 38.48&lt;br&gt;
    &lt;a href="https://img.cdn.prod.alertwest.com/data/img/1695/2026/07/11/Paynes_Peak_1783752231_1923.jpg"&gt;Latest Camera Image&lt;/a&gt;
    ]]&gt;
    </description><Point><coordinates>-121.380676,39.313400,0</coordinates></Point></Placemark><Placemark><name>Axis-Homewood2</name><description>
    &lt;![CDATA[
    &lt;b&gt;Axis-Homewood2&lt;/b&gt;&lt;br&gt;
    County: Placer CA&lt;br&gt;
    Pan/Azimuth: 71.65&lt;br&gt;
    &lt;a href="https://img.cdn.prod.alertwest.com/data/img/2030/2026/05/06/Homewood_Ski_Area_2_1778094538_2997.jpg"&gt;Latest Camera Image&lt;/a&gt;
    ]]&gt;
    </description><Point><coordinates>-120.174530,39.082802,0</coordinates></Point></Placemark><Placemark><name>Axis-Pitts1</name><description>
    &lt;![CDATA[
    &lt;b&gt;Axis-Pitts1&lt;/b&gt;&lt;br&gt;
    County: SanLuisObispo CA&lt;br&gt;
    Pan/Azimuth: 41.41&lt;br&gt;
    &lt;a href="https://img.cdn.prod.alertwest.com/data/img/2694/2026/07/11/Pitts_1783752241_9852.jpg"&gt;Latest Camera Image&lt;/a&gt;
    ]]&gt;
    </description><Point><coordinates>-120.775860,35.678220,0</coordinates></Point></Placemark><Placemark><name>Axis-GypsumCanyon2</name><description>
    &lt;![CDATA[
    &lt;b&gt;Axis-GypsumCanyon2&lt;/b&gt;&lt;br&gt;
    County: Orange CA&lt;br&gt;
    Pan/Azimuth: 292.79&lt;br&gt;
    &lt;a href="https://img.cdn.prod.alertwest.com/data/img/2004/2026/07/11/Gypsum_Canyon_2_1783752227_1131.jpg"&gt;Latest Camera Image&lt;/a&gt;
    ]]&gt;
    </description><Point><coordinates>-117.745430,33.893887,0</coordinates></Point></Placemark><Placemark><name>Axis-RedMtnGlenn1</name><description>
    &lt;![CDATA[
    &lt;b&gt;Axis-RedMtnGlenn1&lt;/b&gt;&lt;br&gt;
    County: Glenn CA&lt;br&gt;
    Pan/Azimuth: 0.63&lt;br&gt;
    &lt;a href="https://img.cdn.prod.alertwest.com/data/img/2306/2026/07/11/Red_Mtn_Glenn_1_1783752247_4096.jpg"&gt;Latest Camera Image&lt;/a&gt;
    ]]&gt;
    </description><Point><coordinates>-122.609604,39.742500,0</coordinates></Point></Placemark><Placemark><name>Axis-LikelyMtn1</name><description>
    &lt;![CDATA[
    &lt;b&gt;Axis-LikelyMtn1&lt;/b&gt;&lt;br&gt;
    County: Lassen CA&lt;br&gt;
    Pan/Azimuth: 184.10&lt;br&gt;
    &lt;a href="https://img.cdn.prod.alertwest.com/data/img/2647/2026/07/11/Likely_Mtn_1_1783729439_8244.jpg"&gt;Latest Camera Image&lt;/a&gt;
    ]]&gt;
    </description><Point><coordinates>-120.563569,41.155165,0</coordinates></Point></Placemark><Placemark><name>Axis-PaloEscrito2</name><description>
    &lt;![CDATA[
    &lt;b&gt;Axis-PaloEscrito2&lt;/b&gt;&lt;br&gt;
    County: Monterey CA&lt;br&gt;
    Pan/Azimuth: 104.80&lt;br&gt;
    &lt;a href="https://img.cdn.prod.alertwest.com/data/img/2238/2026/07/11/Palo_Escrito_2_1783752246_3280.jpg"&gt;Latest Camera Image&lt;/a&gt;
    ]]&gt;
    </description><Point><coordinates>-121.491386,36.406387,0</coordinates></Point></Placemark><Placemark><name>Axis-Hobron</name><description>
    &lt;![CDATA[
    &lt;b&gt;Axis-Hobron&lt;/b&gt;&lt;br&gt;
    County: Tuolumne CA&lt;br&gt;
    Pan/Azimuth: &lt;br&gt;
    &lt;a href=""&gt;Latest Camera Image&lt;/a&gt;
    ]]&gt;
    </description><Point><coordinates>-120.113297,37.793900,0</coordinates></Point></Placemark><Placemark><name>Axis-RedCorral2</name><description>
    &lt;![CDATA[
    &lt;b&gt;Axis-RedCorral2&lt;/b&gt;&lt;br&gt;
    County: Amador CA&lt;br&gt;
    Pan/Azimuth: 195.86&lt;br&gt;
    &lt;a href="https://img.cdn.prod.alertwest.com/data/img/2301/2026/07/11/Red_Corral_Rd_2_1783752232_7212.jpg"&gt;Latest Camera Image&lt;/a&gt;
    ]]&gt;
    </description><Point><coordinates>-120.595154,38.412952,0</coordinates></Point></Placemark><Placemark><name>Axis-Shoeinhorse1</name><description>
    &lt;![CDATA[
    &lt;b&gt;Axis-Shoeinhorse1&lt;/b&gt;&lt;br&gt;
    County: Shasta CA&lt;br&gt;
    Pan/Azimuth: 313.97&lt;br&gt;
    &lt;a href="https://img.cdn.prod.alertwest.com/data/img/2703/2026/07/11/Shoeinhorse_Mtn_1_1783752196_8504.jpg"&gt;Latest Camera Image&lt;/a&gt;
    ]]&gt;
    </description><Point><coordinates>-122.073138,41.068342,0</coordinates></Point></Placemark><Placemark><name>Axis-SanLuisReservoir2</name><description>
    &lt;![CDATA[
    &lt;b&gt;Axis-SanLuisReservoir2&lt;/b&gt;&lt;br&gt;
    County: Merced CA&lt;br&gt;
    Pan/Azimuth: 96.98&lt;br&gt;
    &lt;a href="https://img.cdn.prod.alertwest.com/data/img/2353/2026/07/11/San_Luis_Reservoir_2_1783752182_2923.jpg"&gt;Latest Camera Image&lt;/a&gt;
    ]]&gt;
    </description><Point><coordinates>-121.086288,37.019024,0</coordinates></Point></Placemark><Placemark><name>Axis-JasperRidge</name><description>
    &lt;![CDATA[
    &lt;b&gt;Axis-JasperRidge&lt;/b&gt;&lt;br&gt;
    County: SanMateo CA&lt;br&gt;
    Pan/Azimuth: 186.40&lt;br&gt;
    &lt;a href="https://img.cdn.prod.alertwest.com/data/img/2039/2026/07/11/Jasper_Ridge_Bio_Presv_1783752239_8131.jpg"&gt;Latest Camera Image&lt;/a&gt;
    ]]&gt;
    </description><Point><coordinates>-122.239601,37.405281,0</coordinates></Point></Placemark><Placemark><name>Axis-WilliamsHill1</name><description>
    &lt;![CDATA[
    &lt;b&gt;Axis-WilliamsHill1&lt;/b&gt;&lt;br&gt;
    County: Monterey CA&lt;br&gt;
    Pan/Azimuth: 338.37&lt;br&gt;
    &lt;a href="https://img.cdn.prod.alertwest.com/data/img/2509/2026/07/11/Williams_Hill_1_1783752219_2850.jpg"&gt;Latest Camera Image&lt;/a&gt;
    ]]&gt;
    </description><Point><coordinates>-121.001999,35.951000,0</coordinates></Point></Placemark><Placemark><name>Axis-CuyamacaPeakSouth</name><description>
    &lt;![CDATA[
    &lt;b&gt;Axis-CuyamacaPeakSouth&lt;/b&gt;&lt;br&gt;
    County: SanDiego CA&lt;br&gt;
    Pan/Azimuth: 204.99&lt;br&gt;
    &lt;a href="https://img.cdn.prod.alertwest.com/data/img/1926/2026/07/11/Cuyamaca_Peak_South_1783752237_2549.jpg"&gt;Latest Camera Image&lt;/a&gt;
    ]]&gt;
    </description><Point><coordinates>-116.606575,32.946434,0</coordinates></Point></Placemark><Placemark><name>Axis-Rasnow2</name><description>
    &lt;![CDATA[
    &lt;b&gt;Axis-Rasnow2&lt;/b&gt;&lt;br&gt;
    County: Ventura CA&lt;br&gt;
    Pan/Azimuth: 191.08&lt;br&gt;
    &lt;a href="https://img.cdn.prod.alertwest.com/data/img/2297/2026/07/11/Rasnow_Peak_2_1783752248_3461.jpg"&gt;Latest Camera Image&lt;/a&gt;
    ]]&gt;
    </description><Point><coordinates>-118.908997,34.165298,0</coordinates></Point></Placemark><Placemark><name>Axis-SnowPeak2</name><description>
    &lt;![CDATA[
    &lt;b&gt;Axis-SnowPeak2&lt;/b&gt;&lt;br&gt;
    County: SanBernardino CA&lt;br&gt;
    Pan/Azimuth: 343.14&lt;br&gt;
    &lt;a href="https://img.cdn.prod.alertwest.com/data/img/2400/2026/07/11/Snow_Peak_2_1783752247_5477.jpg"&gt;Latest Camera Image&lt;/a&gt;
    ]]&gt;
    </description><Point><coordinates>-116.814400,34.037701,0</coordinates></Point></Placemark><Placemark><name>Axis-AlabamaHills1</name><description>
    &lt;![CDATA[
    &lt;b&gt;Axis-AlabamaHills1&lt;/b&gt;&lt;br&gt;
    County: Inyo CA&lt;br&gt;
    Pan/Azimuth: 81.14&lt;br&gt;
    &lt;a href="https://img.cdn.prod.alertwest.com/data/img/1779/2026/07/11/Alabama_Hills_1_1783752245_6660.jpg"&gt;Latest Camera Image&lt;/a&gt;
    ]]&gt;
    </description><Point><coordinates>-118.089951,36.565666,0</coordinates></Point></Placemark><Placemark><name>Axis-BerryessaEast</name><description>
    &lt;![CDATA[
    &lt;b&gt;Axis-BerryessaEast&lt;/b&gt;&lt;br&gt;
    County: Yolo CA&lt;br&gt;
    Pan/Azimuth: 1.64&lt;br&gt;
    &lt;a href="https://img.cdn.prod.alertwest.com/data/img/2066/2026/07/11/Lake_Berryessa_East_1783752143_5169.jpg"&gt;Latest Camera Image&lt;/a&gt;
    ]]&gt;
    </description><Point><coordinates>-122.189301,38.662998,0</coordinates></Point></Placemark><Placemark><name>Axis-Sites1</name><description>
    &lt;![CDATA[
    &lt;b&gt;Axis-Sites1&lt;/b&gt;&lt;br&gt;
    County: Colusa CA&lt;br&gt;
    Pan/Azimuth: 289.35&lt;br&gt;
    &lt;a href="https://img.cdn.prod.alertwest.com/data/img/1725/2026/07/11/Sites_1_1783752231_8401.jpg"&gt;Latest Camera Image&lt;/a&gt;
    ]]&gt;
    </description><Point><coordinates>-122.334740,39.287891,0</coordinates></Point></Placemark><Placemark><name>Axis-PortalRidge1</name><description>
    &lt;![CDATA[
    &lt;b&gt;Axis-PortalRidge1&lt;/b&gt;&lt;br&gt;
    County: LosAngeles CA&lt;br&gt;
    Pan/Azimuth: 31.59&lt;br&gt;
    &lt;a href="https://img.cdn.prod.alertwest.com/data/img/2269/2026/07/11/Portal_Ridge_1_1783752177_9456.jpg"&gt;Latest Camera Image&lt;/a&gt;
    ]]&gt;
    </description><Point><coordinates>-118.432617,34.679214,0</coordinates></Point></Placemark><Placemark><name>Axis-Willet1</name><description>
    &lt;![CDATA[
    &lt;b&gt;Axis-Willet1&lt;/b&gt;&lt;br&gt;
    County: Ventura CA&lt;br&gt;
    Pan/Azimuth: 0.82&lt;br&gt;
    &lt;a href="https://img.cdn.prod.alertwest.com/data/img/2424/2026/07/11/Sulphur_Mtn_Willet_1_1783752246_7173.jpg"&gt;Latest Camera Image&lt;/a&gt;
    ]]&gt;
    </description><Point><coordinates>-119.187973,34.412621,0</coordinates></Point></Placemark><Placemark><name>Axis-BoxSpringsEast1</name><description>
    &lt;![CDATA[
    &lt;b&gt;Axis-BoxSpringsEast1&lt;/b&gt;&lt;br&gt;
    County: Riverside CA&lt;br&gt;
    Pan/Azimuth: 319.78&lt;br&gt;
    &lt;a href="https://img.cdn.prod.alertwest.com/data/img/1849/2026/07/11/Box_Springs_Mtn_East_1_1783752248_2512.jpg"&gt;Latest Camera Image&lt;/a&gt;
    ]]&gt;
    </description><Point><coordinates>-117.288879,33.966240,0</coordinates></Point></Placemark><Placemark><name>Axis-ObsTehachapi1</name><description>
    &lt;![CDATA[
    &lt;b&gt;Axis-ObsTehachapi1&lt;/b&gt;&lt;br&gt;
    County: Kern CA&lt;br&gt;
    Pan/Azimuth: 355.27&lt;br&gt;
    &lt;a href="https://img.cdn.prod.alertwest.com/data/img/2441/2026/07/11/Tehachapi_Obsv_1_1783752246_2841.jpg"&gt;Latest Camera Image&lt;/a&gt;
    ]]&gt;
    </description><Point><coordinates>-118.461143,35.045982,0</coordinates></Point></Placemark><Placemark><name>Axis-WestPeak1</name><description>
    &lt;![CDATA[
    &lt;b&gt;Axis-WestPeak1&lt;/b&gt;&lt;br&gt;
    County: Shasta CA&lt;br&gt;
    Pan/Azimuth: 239.78&lt;br&gt;
    &lt;a href="https://img.cdn.prod.alertwest.com/data/img/2490/2026/07/11/West_Peak_1_1783752241_2831.jpg"&gt;Latest Camera Image&lt;/a&gt;
    ]]&gt;
    </description><Point><coordinates>-122.505096,40.537701,0</coordinates></Point></Placemark><Placemark><name>Axis-MtZion1</name><description>
    &lt;![CDATA[
    &lt;b&gt;Axis-MtZion1&lt;/b&gt;&lt;br&gt;
    County: Amador CA&lt;br&gt;
    Pan/Azimuth: 259.83&lt;br&gt;
    &lt;a href="https://img.cdn.prod.alertwest.com/data/img/2198/2026/07/11/Mt_Zion_1_1783752245_1079.jpg"&gt;Latest Camera Image&lt;/a&gt;
    ]]&gt;
    </description><Point><coordinates>-120.652336,38.389950,0</coordinates></Point></Placemark><Placemark><name>Axis-SanLuisReservoir1</name><description>
    &lt;![CDATA[
    &lt;b&gt;Axis-SanLuisReservoir1&lt;/b&gt;&lt;br&gt;
    County: Merced CA&lt;br&gt;
    Pan/Azimuth: 97.53&lt;br&gt;
    &lt;a href="https://img.cdn.prod.alertwest.com/data/img/2352/2026/07/11/San_Luis_Reservoir_1_1783752231_6728.jpg"&gt;Latest Camera Image&lt;/a&gt;
    ]]&gt;
    </description><Point><coordinates>-121.086288,37.019024,0</coordinates></Point></Placemark><Placemark><name>Axis-ElkCreek1</name><description>
    &lt;![CDATA[
    &lt;b&gt;Axis-ElkCreek1&lt;/b&gt;&lt;br&gt;
    County: Glenn CA&lt;br&gt;
    Pan/Azimuth: 267.48&lt;br&gt;
    &lt;a href="https://img.cdn.prod.alertwest.com/data/img/1645/2026/07/11/Elk_Creek_1_1783752247_4834.jpg"&gt;Latest Camera Image&lt;/a&gt;
    ]]&gt;
    </description><Point><coordinates>-122.562767,39.515667,0</coordinates></Point></Placemark><Placemark><name>Axis-Parkfield1</name><description>
    &lt;![CDATA[
    &lt;b&gt;Axis-Parkfield1&lt;/b&gt;&lt;br&gt;
    County: Monterey CA&lt;br&gt;
    Pan/Azimuth: 340.31&lt;br&gt;
    &lt;a href="https://img.cdn.prod.alertwest.com/data/img/2239/2026/07/11/Parkfield_1_1783752248_4743.jpg"&gt;Latest Camera Image&lt;/a&gt;
    ]]&gt;
    </description><Point><coordinates>-120.380814,35.927635,0</coordinates></Point></Placemark><Placemark><name>Axis-HallsRidge1</name><description>
    &lt;![CDATA[
    &lt;b&gt;Axis-HallsRidge1&lt;/b&gt;&lt;br&gt;
    County: Monterey CA&lt;br&gt;
    Pan/Azimuth: 237.21&lt;br&gt;
    &lt;a href="https://img.cdn.prod.alertwest.com/data/img/2686/2026/07/11/Halls_Ridge_1_1783752240_2207.jpg"&gt;Latest Camera Image&lt;/a&gt;
    ]]&gt;
    </description><Point><coordinates>-121.825806,36.457556,0</coordinates></Point></Placemark><Placemark><name>Axis-BaldMtnNapa</name><description>
    &lt;![CDATA[
    &lt;b&gt;Axis-BaldMtnNapa&lt;/b&gt;&lt;br&gt;
    County: Napa CA&lt;br&gt;
    Pan/Azimuth: 200.05&lt;br&gt;
    &lt;a href="https://img.cdn.prod.alertwest.com/data/img/1804/2026/07/11/Bald_Mtn_Napa_1783752237_9087.jpg"&gt;Latest Camera Image&lt;/a&gt;
    ]]&gt;
    </description><Point><coordinates>-122.490303,38.426300,0</coordinates></Point></Placemark><Placemark><name>Axis-Watsonville1</name><description>
    &lt;![CDATA[
    &lt;b&gt;Axis-Watsonville1&lt;/b&gt;&lt;br&gt;
    County: SantaCruz CA&lt;br&gt;
    Pan/Azimuth: 19.93&lt;br&gt;
    &lt;a href="https://img.cdn.prod.alertwest.com/data/img/4713/2026/07/11/Watsonville_1_1783752248_5409.jpg"&gt;Latest Camera Image&lt;/a&gt;
    ]]&gt;
    </description><Point><coordinates>-121.755682,36.908399,0</coordinates></Point></Placemark><Placemark><name>Axis-SuisunValley</name><description>
    &lt;![CDATA[
    &lt;b&gt;Axis-SuisunValley&lt;/b&gt;&lt;br&gt;
    County: Solano CA&lt;br&gt;
    Pan/Azimuth: 320.22&lt;br&gt;
    &lt;a href="https://img.cdn.prod.alertwest.com/data/img/2423/2026/07/11/Suisun_Valley_1783752220_8484.jpg"&gt;Latest Camera Image&lt;/a&gt;
    ]]&gt;
    </description><Point><coordinates>-122.092102,38.263302,0</coordinates></Point></Placemark><Placemark><name>Axis-IndianRidge2</name><description>
    &lt;![CDATA[
    &lt;b&gt;Axis-IndianRidge2&lt;/b&gt;&lt;br&gt;
    County: Plumas CA&lt;br&gt;
    Pan/Azimuth: 332.83&lt;br&gt;
    &lt;a href="https://img.cdn.prod.alertwest.com/data/img/2531/2026/07/11/Indian_Ridge_2_1783752249_8444.jpg"&gt;Latest Camera Image&lt;/a&gt;
    ]]&gt;
    </description><Point><coordinates>-120.916879,40.060354,0</coordinates></Point></Placemark><Placemark><name>Axis-RoundMtnFresno</name><description>
    &lt;![CDATA[
    &lt;b&gt;Axis-RoundMtnFresno&lt;/b&gt;&lt;br&gt;
    County: Fresno CA&lt;br&gt;
    Pan/Azimuth: 48.27&lt;br&gt;
    &lt;a href="https://img.cdn.prod.alertwest.com/data/img/2332/2026/07/11/Round_Mtn_Fresno_1783752234_6471.jpg"&gt;Latest Camera Image&lt;/a&gt;
    ]]&gt;
    </description><Point><coordinates>-119.510727,36.818382,0</coordinates></Point></Placemark><Placemark><name>Axis-SYP</name><description>
    &lt;![CDATA[
    &lt;b&gt;Axis-SYP&lt;/b&gt;&lt;br&gt;
    County: SantaBarbara CA&lt;br&gt;
    Pan/Azimuth: 22.57&lt;br&gt;
    &lt;a href="https://img.cdn.prod.alertwest.com/data/img/2364/2026/07/11/Santa_Ynez_Peak_1783752235_1788.jpg"&gt;Latest Camera Image&lt;/a&gt;
    ]]&gt;
    </description><Point><coordinates>-119.978905,34.527107,0</coordinates></Point></Placemark><Placemark><name>Axis-TwinSistersNorth1</name><description>
    &lt;![CDATA[
    &lt;b&gt;Axis-TwinSistersNorth1&lt;/b&gt;&lt;br&gt;
    County: Solano CA&lt;br&gt;
    Pan/Azimuth: 219.26&lt;br&gt;
    &lt;a href="https://img.cdn.prod.alertwest.com/data/img/2466/2026/07/11/Twin_Sisters_North_1_1783752205_7375.jpg"&gt;Latest Camera Image&lt;/a&gt;
    ]]&gt;
    </description><Point><coordinates>-122.168503,38.303200,0</coordinates></Point></Placemark><Placemark><name>Axis-SanBrunoMtn1</name><description>
    &lt;![CDATA[
    &lt;b&gt;Axis-SanBrunoMtn1&lt;/b&gt;&lt;br&gt;
    County: SanMateo CA&lt;br&gt;
    Pan/Azimuth: 125.41&lt;br&gt;
    &lt;a href="https://img.cdn.prod.alertwest.com/data/img/4706/2026/07/11/San_Bruno_Mountain_1783752232_2090.jpg"&gt;Latest Camera Image&lt;/a&gt;
    ]]&gt;
    </description><Point><coordinates>-122.435452,37.687371,0</coordinates></Point></Placemark><Placemark><name>Axis-Idyllwild2</name><description>
    &lt;![CDATA[
    &lt;b&gt;Axis-Idyllwild2&lt;/b&gt;&lt;br&gt;
    County: Riverside CA&lt;br&gt;
    Pan/Azimuth: 28.43&lt;br&gt;
    &lt;a href="https://img.cdn.prod.alertwest.com/data/img/2036/2026/07/11/Idyllwild_2_1783752238_5031.jpg"&gt;Latest Camera Image&lt;/a&gt;
    ]]&gt;
    </description><Point><coordinates>-116.750679,33.725632,0</coordinates></Point></Placemark><Placemark><name>Axis-BaldMtnLaPorte</name><description>
    &lt;![CDATA[
    &lt;b&gt;Axis-BaldMtnLaPorte&lt;/b&gt;&lt;br&gt;
    County: Plumas CA&lt;br&gt;
    Pan/Azimuth: 298.62&lt;br&gt;
    &lt;a href="https://img.cdn.prod.alertwest.com/data/img/1612/2026/07/11/Bald_Mtn_La_Porte_1783752246_8082.jpg"&gt;Latest Camera Image&lt;/a&gt;
    ]]&gt;
    </description><Point><coordinates>-120.980133,39.696880,0</coordinates></Point></Placemark><Placemark><name>Axis-MinnesotaHill2</name><description>
    &lt;![CDATA[
    &lt;b&gt;Axis-MinnesotaHill2&lt;/b&gt;&lt;br&gt;
    County: SanDiego CA&lt;br&gt;
    Pan/Azimuth: 133.99&lt;br&gt;
    &lt;a href="https://img.cdn.prod.alertwest.com/data/img/2126/2026/07/11/Minnesota_Hill_Fallbrook_2_1783752246_1897.jpg"&gt;Latest Camera Image&lt;/a&gt;
    ]]&gt;
    </description><Point><coordinates>-117.245743,33.383991,0</coordinates></Point></Placemark><Placemark><name>Axis-BlueRidge2</name><description>
    &lt;![CDATA[
    &lt;b&gt;Axis-BlueRidge2&lt;/b&gt;&lt;br&gt;
    County: Tulare CA&lt;br&gt;
    Pan/Azimuth: 114.64&lt;br&gt;
    &lt;a href="https://img.cdn.prod.alertwest.com/data/img/1841/2026/07/11/Blue_Ridge_2_1783752203_9103.jpg"&gt;Latest Camera Image&lt;/a&gt;
    ]]&gt;
    </description><Point><coordinates>-118.839729,36.286610,0</coordinates></Point></Placemark><Placemark><name>Axis-CapellValley2</name><description>
    &lt;![CDATA[
    &lt;b&gt;Axis-CapellValley2&lt;/b&gt;&lt;br&gt;
    County: Napa CA&lt;br&gt;
    Pan/Azimuth: 123.88&lt;br&gt;
    &lt;a href="https://img.cdn.prod.alertwest.com/data/img/1878/2026/07/11/Capell_Valley_2_1783752236_9270.jpg"&gt;Latest Camera Image&lt;/a&gt;
    ]]&gt;
    </description><Point><coordinates>-122.224709,38.488029,0</coordinates></Point></Placemark><Placemark><name>Axis-Cottonwood</name><description>
    &lt;![CDATA[
    &lt;b&gt;Axis-Cottonwood&lt;/b&gt;&lt;br&gt;
    County: Idaho ID&lt;br&gt;
    Pan/Azimuth: 34.08&lt;br&gt;
    &lt;a href="https://img.cdn.prod.alertwest.com/data/img/9236/2026/07/11/Cottonwood_1783752242_9245.jpg"&gt;Latest Camera Image&lt;/a&gt;
    ]]&gt;
    </description><Point><coordinates>-116.465098,46.069203,0</coordinates></Point></Placemark><Placemark><name>Axis-OnyxPeakSouth2</name><description>
    &lt;![CDATA[
    &lt;b&gt;Axis-OnyxPeakSouth2&lt;/b&gt;&lt;br&gt;
    County: SanBernardino CA&lt;br&gt;
    Pan/Azimuth: 239.54&lt;br&gt;
    &lt;a href="https://img.cdn.prod.alertwest.com/data/img/2688/2026/07/11/Onyx_Peak_South_2_1783752231_3501.jpg"&gt;Latest Camera Image&lt;/a&gt;
    ]]&gt;
    </description><Point><coordinates>-116.709415,34.191277,0</coordinates></Point></Placemark><Placemark><name>Axis-DeadmansRidgeWest</name><description>
    &lt;![CDATA[
    &lt;b&gt;Axis-DeadmansRidgeWest&lt;/b&gt;&lt;br&gt;
    County: SanBernardino CA&lt;br&gt;
    Pan/Azimuth: 273.43&lt;br&gt;
    &lt;a href="https://img.cdn.prod.alertwest.com/data/img/1930/2026/07/11/Deadmans_Ridge_West_1783752238_7783.jpg"&gt;Latest Camera Image&lt;/a&gt;
    ]]&gt;
    </description><Point><coordinates>-116.792107,34.232967,0</coordinates></Point></Placemark><Placemark><name>Axis-TelegraphHill2</name><description>
    &lt;![CDATA[
    &lt;b&gt;Axis-TelegraphHill2&lt;/b&gt;&lt;br&gt;
    County: Tuolumne CA&lt;br&gt;
    Pan/Azimuth: 28.36&lt;br&gt;
    &lt;a href="https://img.cdn.prod.alertwest.com/data/img/2445/2026/07/11/Telegraph_Hill_2_1783752236_3658.jpg"&gt;Latest Camera Image&lt;/a&gt;
    ]]&gt;
    </description><Point><coordinates>-120.351799,38.030800,0</coordinates></Point></Placemark><Placemark><name>Axis-BaldMtnTower1</name><description>
    &lt;![CDATA[
    &lt;b&gt;Axis-BaldMtnTower1&lt;/b&gt;&lt;br&gt;
    County: LosAngeles CA&lt;br&gt;
    Pan/Azimuth: 258.48&lt;br&gt;
    &lt;a href="https://img.cdn.prod.alertwest.com/data/img/8563/2026/07/11/Bald_Mtn_Tower_LAC_1_1783752236_1870.jpg"&gt;Latest Camera Image&lt;/a&gt;
    ]]&gt;
    </description><Point><coordinates>-118.728000,34.744700,0</coordinates></Point></Placemark><Placemark><name>Axis-LosPinosNorth</name><description>
    &lt;![CDATA[
    &lt;b&gt;Axis-LosPinosNorth&lt;/b&gt;&lt;br&gt;
    County: SanDiego CA&lt;br&gt;
    Pan/Azimuth: 288.24&lt;br&gt;
    &lt;a href="https://img.cdn.prod.alertwest.com/data/img/2086/2026/07/11/Los_Pinos_North_1783752228_3608.jpg"&gt;Latest Camera Image&lt;/a&gt;
    ]]&gt;
    </description><Point><coordinates>-116.577751,32.734673,0</coordinates></Point></Placemark><Placemark><name>Axis-MojaveAdmin2</name><description>
    &lt;![CDATA[
    &lt;b&gt;Axis-MojaveAdmin2&lt;/b&gt;&lt;br&gt;
    County: Kern CA&lt;br&gt;
    Pan/Azimuth: 62.97&lt;br&gt;
    &lt;a href="https://img.cdn.prod.alertwest.com/data/img/2134/2026/07/11/Mojave_Admin_2_1783752238_7219.jpg"&gt;Latest Camera Image&lt;/a&gt;
    ]]&gt;
    </description><Point><coordinates>-118.162468,35.046242,0</coordinates></Point></Placemark><Placemark><name>Axis-Canyonback2</name><description>
    &lt;![CDATA[
    &lt;b&gt;Axis-Canyonback2&lt;/b&gt;&lt;br&gt;
    County: LosAngeles CA&lt;br&gt;
    Pan/Azimuth: 148.55&lt;br&gt;
    &lt;a href="https://img.cdn.prod.alertwest.com/data/img/1876/2026/07/11/Canyonback_Trail_TCM_2_1783752231_6630.jpg"&gt;Latest Camera Image&lt;/a&gt;
    ]]&gt;
    </description><Point><coordinates>-118.497704,34.098499,0</coordinates></Point></Placemark><Placemark><name>Axis-SanBenitoMtn1</name><description>
    &lt;![CDATA[
    &lt;b&gt;Axis-SanBenitoMtn1&lt;/b&gt;&lt;br&gt;
    County: SanBenito CA&lt;br&gt;
    Pan/Azimuth: 261.88&lt;br&gt;
    &lt;a href="https://img.cdn.prod.alertwest.com/data/img/2739/2026/07/11/San_Benito_Mtn_1_1783752249_6908.jpg"&gt;Latest Camera Image&lt;/a&gt;
    ]]&gt;
    </description><Point><coordinates>-120.643700,36.368728,0</coordinates></Point></Placemark><Placemark><name>Axis-Hamilton2</name><description>
    &lt;![CDATA[
    &lt;b&gt;Axis-Hamilton2&lt;/b&gt;&lt;br&gt;
    County: Glenn CA&lt;br&gt;
    Pan/Azimuth: 2.78&lt;br&gt;
    &lt;a href="https://img.cdn.prod.alertwest.com/data/img/1665/2026/07/11/Hamilton_City_2_1783752248_3966.jpg"&gt;Latest Camera Image&lt;/a&gt;
    ]]&gt;
    </description><Point><coordinates>-122.008545,39.737679,0</coordinates></Point></Placemark><Placemark><name>Axis-Bodega1</name><description>
    &lt;![CDATA[
    &lt;b&gt;Axis-Bodega1&lt;/b&gt;&lt;br&gt;
    County: Sonoma CA&lt;br&gt;
    Pan/Azimuth: 71.51&lt;br&gt;
    &lt;a href="https://img.cdn.prod.alertwest.com/data/img/2759/2026/07/11/Bodega_Bay_1783752245_3204.jpg"&gt;Latest Camera Image&lt;/a&gt;
    ]]&gt;
    </description><Point><coordinates>-123.020507,38.341701,0</coordinates></Point></Placemark><Placemark><name>Axis-PoleMt</name><description>
    &lt;![CDATA[
    &lt;b&gt;Axis-PoleMt&lt;/b&gt;&lt;br&gt;
    County: Sonoma CA&lt;br&gt;
    Pan/Azimuth: 115.52&lt;br&gt;
    &lt;a href="https://img.cdn.prod.alertwest.com/data/img/2266/2026/07/11/Pole_Mtn_Lookout_1_1783752240_1808.jpg"&gt;Latest Camera Image&lt;/a&gt;
    ]]&gt;
    </description><Point><coordinates>-123.120003,38.505402,0</coordinates></Point></Placemark><Placemark><name>Axis-Kingsville</name><description>
    &lt;![CDATA[
    &lt;b&gt;Axis-Kingsville&lt;/b&gt;&lt;br&gt;
    County: eldorado CA&lt;br&gt;
    Pan/Azimuth: 65.28&lt;br&gt;
    &lt;a href="https://img.cdn.prod.alertwest.com/data/img/2053/2026/07/11/Kingsville_1783752241_1518.jpg"&gt;Latest Camera Image&lt;/a&gt;
    ]]&gt;
    </description><Point><coordinates>-120.878822,38.677158,0</coordinates></Point></Placemark><Placemark><name>Axis-HiMountain2</name><description>
    &lt;![CDATA[
    &lt;b&gt;Axis-HiMountain2&lt;/b&gt;&lt;br&gt;
    County: SanLuisObispo CA&lt;br&gt;
    Pan/Azimuth: &lt;br&gt;
    &lt;a href=""&gt;Latest Camera Image&lt;/a&gt;
    ]]&gt;
    </description><Point><coordinates>-120.425179,35.259979,0</coordinates></Point></Placemark><Placemark><name>Axis-BlackMtnLassen1</name><description>
    &lt;![CDATA[
    &lt;b&gt;Axis-BlackMtnLassen1&lt;/b&gt;&lt;br&gt;
    County: Lassen CA&lt;br&gt;
    Pan/Azimuth: 262.70&lt;br&gt;
    &lt;a href="https://img.cdn.prod.alertwest.com/data/img/2669/2026/07/11/Black_Mtn_Lassen_1_1783752201_3471.jpg"&gt;Latest Camera Image&lt;/a&gt;
    ]]&gt;
    </description><Point><coordinates>-120.317476,40.116821,0</coordinates></Point></Placemark><Placemark><name>Axis-HuntingtonLake1</name><description>
    &lt;![CDATA[
    &lt;b&gt;Axis-HuntingtonLake1&lt;/b&gt;&lt;br&gt;
    County: Fresno CA&lt;br&gt;
    Pan/Azimuth: 29.11&lt;br&gt;
    &lt;a href="https://img.cdn.prod.alertwest.com/data/img/2031/2026/07/11/Huntington_Lake_1_1783752232_5586.jpg"&gt;Latest Camera Image&lt;/a&gt;
    ]]&gt;
    </description><Point><coordinates>-119.238586,37.218224,0</coordinates></Point></Placemark><Placemark><name>Axis-Briar2</name><description>
    &lt;![CDATA[
    &lt;b&gt;Axis-Briar2&lt;/b&gt;&lt;br&gt;
    County: LosAngeles CA&lt;br&gt;
    Pan/Azimuth: 22.44&lt;br&gt;
    &lt;a href="https://img.cdn.prod.alertwest.com/data/img/2416/2026/07/11/Star_Mtn_2_1783752246_7978.jpg"&gt;Latest Camera Image&lt;/a&gt;
    ]]&gt;
    </description><Point><coordinates>-118.392502,34.118900,0</coordinates></Point></Placemark><Placemark><name>Axis-LaHabra2</name><description>
    &lt;![CDATA[
    &lt;b&gt;Axis-LaHabra2&lt;/b&gt;&lt;br&gt;
    County: LosAngeles CA&lt;br&gt;
    Pan/Azimuth: 80.14&lt;br&gt;
    &lt;a href="https://img.cdn.prod.alertwest.com/data/img/2293/2026/07/11/Rancho_La_Habra_2_1783752247_7363.jpg"&gt;Latest Camera Image&lt;/a&gt;
    ]]&gt;
    </description><Point><coordinates>-117.942902,33.973301,0</coordinates></Point></Placemark><Placemark><name>Axis-UpperLake2</name><description>
    &lt;![CDATA[
    &lt;b&gt;Axis-UpperLake2&lt;/b&gt;&lt;br&gt;
    County: Lake CA&lt;br&gt;
    Pan/Azimuth: 164.00&lt;br&gt;
    &lt;a href="https://img.cdn.prod.alertwest.com/data/img/2542/2026/07/11/Upper_Lake_2_1783752242_4357.jpg"&gt;Latest Camera Image&lt;/a&gt;
    ]]&gt;
    </description><Point><coordinates>-122.927950,39.174330,0</coordinates></Point></Placemark><Placemark><name>Axis-RedCorral</name><description>
    &lt;![CDATA[
    &lt;b&gt;Axis-RedCorral&lt;/b&gt;&lt;br&gt;
    County: Amador CA&lt;br&gt;
    Pan/Azimuth: 190.07&lt;br&gt;
    &lt;a href="https://img.cdn.prod.alertwest.com/data/img/2300/2026/07/11/Red_Corral_Rd_1_1783752223_3975.jpg"&gt;Latest Camera Image&lt;/a&gt;
    ]]&gt;
    </description><Point><coordinates>-120.595154,38.412952,0</coordinates></Point></Placemark><Placemark><name>Axis-Edith2</name><description>
    &lt;![CDATA[
    &lt;b&gt;Axis-Edith2&lt;/b&gt;&lt;br&gt;
    County: Mariposa CA&lt;br&gt;
    Pan/Azimuth: 356.97&lt;br&gt;
    &lt;a href="https://img.cdn.prod.alertwest.com/data/img/1954/2026/07/11/Edith_Hill_2_1783752248_4018.jpg"&gt;Latest Camera Image&lt;/a&gt;
    ]]&gt;
    </description><Point><coordinates>-120.120667,37.747513,0</coordinates></Point></Placemark><Placemark><name>Axis-Sagehen5</name><description>
    &lt;![CDATA[
    &lt;b&gt;Axis-Sagehen5&lt;/b&gt;&lt;br&gt;
    County: Nevada CA&lt;br&gt;
    Pan/Azimuth: 130.64&lt;br&gt;
    &lt;a href="https://img.cdn.prod.alertwest.com/data/img/2340/2026/07/11/Sage_Hen_1783752237_3774.jpg"&gt;Latest Camera Image&lt;/a&gt;
    ]]&gt;
    </description><Point><coordinates>-120.311867,39.426414,0</coordinates></Point></Placemark><Placemark><name>Axis-BuffaloBumpSouth</name><description>
    &lt;![CDATA[
    &lt;b&gt;Axis-BuffaloBumpSouth&lt;/b&gt;&lt;br&gt;
    County: SanDiego CA&lt;br&gt;
    Pan/Azimuth: 110.36&lt;br&gt;
    &lt;a href="https://img.cdn.prod.alertwest.com/data/img/2540/2026/07/11/Buffalo_Bump_South_1783752240_8148.jpg"&gt;Latest Camera Image&lt;/a&gt;
    ]]&gt;
    </description><Point><coordinates>-117.382530,33.428371,0</coordinates></Point></Placemark><Placemark><name>Axis-Sierra</name><description>
    &lt;![CDATA[
    &lt;b&gt;Axis-Sierra&lt;/b&gt;&lt;br&gt;
    County: El Dorado CA&lt;br&gt;
    Pan/Azimuth: 309.03&lt;br&gt;
    &lt;a href="https://img.cdn.prod.alertwest.com/data/img/2380/2026/07/11/Sierra_at_Tahoe_1783752238_8918.jpg"&gt;Latest Camera Image&lt;/a&gt;
    ]]&gt;
    </description><Point><coordinates>-120.062912,38.795753,0</coordinates></Point></Placemark><Placemark><name>Axis-Brookdale</name><description>
    &lt;![CDATA[
    &lt;b&gt;Axis-Brookdale&lt;/b&gt;&lt;br&gt;
    County: SantaCruz CA&lt;br&gt;
    Pan/Azimuth: 193.88&lt;br&gt;
    &lt;a href="https://img.cdn.prod.alertwest.com/data/img/1859/2026/07/11/Brookdale_1783752240_4220.jpg"&gt;Latest Camera Image&lt;/a&gt;
    ]]&gt;
    </description><Point><coordinates>-122.104172,37.113949,0</coordinates></Point></Placemark><Placemark><name>Axis-PlatteMtn2</name><description>
    &lt;![CDATA[
    &lt;b&gt;Axis-PlatteMtn2&lt;/b&gt;&lt;br&gt;
    County: Butte CA&lt;br&gt;
    Pan/Azimuth: 10.31&lt;br&gt;
    &lt;a href="https://img.cdn.prod.alertwest.com/data/img/1700/2026/07/11/Platte_Mtn_2_1783752241_5625.jpg"&gt;Latest Camera Image&lt;/a&gt;
    ]]&gt;
    </description><Point><coordinates>-121.647499,39.935921,0</coordinates></Point></Placemark><Placemark><name>Axis-Hornbrook1</name><description>
    &lt;![CDATA[
    &lt;b&gt;Axis-Hornbrook1&lt;/b&gt;&lt;br&gt;
    County: Siskiyou CA&lt;br&gt;
    Pan/Azimuth: 336.40&lt;br&gt;
    &lt;a href="https://img.cdn.prod.alertwest.com/data/img/1765/2026/07/11/Hornbrook_1_1783752232_6264.jpg"&gt;Latest Camera Image&lt;/a&gt;
    ]]&gt;
    </description><Point><coordinates>-122.557403,41.929877,0</coordinates></Point></Placemark><Placemark><name>Axis-Winters2</name><description>
    &lt;![CDATA[
    &lt;b&gt;Axis-Winters2&lt;/b&gt;&lt;br&gt;
    County: Yolo CA&lt;br&gt;
    Pan/Azimuth: 107.76&lt;br&gt;
    &lt;a href="https://img.cdn.prod.alertwest.com/data/img/2517/2026/07/11/Winters_2_1783752194_1517.jpg"&gt;Latest Camera Image&lt;/a&gt;
    ]]&gt;
    </description><Point><coordinates>-121.983101,38.521198,0</coordinates></Point></Placemark><Placemark><name>Axis-QuailRidge1</name><description>
    &lt;![CDATA[
    &lt;b&gt;Axis-QuailRidge1&lt;/b&gt;&lt;br&gt;
    County: Plumas CA&lt;br&gt;
    Pan/Azimuth: 83.21&lt;br&gt;
    &lt;a href="https://img.cdn.prod.alertwest.com/data/img/1702/2026/07/11/Quail_Ridge_1_1783752247_7185.jpg"&gt;Latest Camera Image&lt;/a&gt;
    ]]&gt;
    </description><Point><coordinates>-120.942520,39.952881,0</coordinates></Point></Placemark><Placemark><name>Axis-BlueCanyon</name><description>
    &lt;![CDATA[
    &lt;b&gt;Axis-BlueCanyon&lt;/b&gt;&lt;br&gt;
    County: Placer CA&lt;br&gt;
    Pan/Azimuth: 140.02&lt;br&gt;
    &lt;a href="https://img.cdn.prod.alertwest.com/data/img/1620/2026/07/11/Blue_Canyon_1783752248_7496.jpg"&gt;Latest Camera Image&lt;/a&gt;
    ]]&gt;
    </description><Point><coordinates>-120.721222,39.255951,0</coordinates></Point></Placemark><Placemark><name>Axis-LittleMountain1</name><description>
    &lt;![CDATA[
    &lt;b&gt;Axis-LittleMountain1&lt;/b&gt;&lt;br&gt;
    County: SanBernardino CA&lt;br&gt;
    Pan/Azimuth: 255.53&lt;br&gt;
    &lt;a href="https://img.cdn.prod.alertwest.com/data/img/2078/2026/07/11/Little_Mountain_1_1783752247_6157.jpg"&gt;Latest Camera Image&lt;/a&gt;
    ]]&gt;
    </description><Point><coordinates>-117.315002,34.159000,0</coordinates></Point></Placemark><Placemark><name>Axis-RadioHill1</name><description>
    &lt;![CDATA[
    &lt;b&gt;Axis-RadioHill1&lt;/b&gt;&lt;br&gt;
    County: Plumas CA&lt;br&gt;
    Pan/Azimuth: 357.88&lt;br&gt;
    &lt;a href="https://img.cdn.prod.alertwest.com/data/img/1704/2026/07/11/Radio_Hill_1_1783752227_2257.jpg"&gt;Latest Camera Image&lt;/a&gt;
    ]]&gt;
    </description><Point><coordinates>-120.928932,39.940388,0</coordinates></Point></Placemark><Placemark><name>Axis-Martis</name><description>
    &lt;![CDATA[
    &lt;b&gt;Axis-Martis&lt;/b&gt;&lt;br&gt;
    County: Placer CA&lt;br&gt;
    Pan/Azimuth: 214.09&lt;br&gt;
    &lt;a href="https://img.cdn.prod.alertwest.com/data/img/2100/2026/07/11/Martis_Peak_1783752242_1752.jpg"&gt;Latest Camera Image&lt;/a&gt;
    ]]&gt;
    </description><Point><coordinates>-120.036003,39.292000,0</coordinates></Point></Placemark><Placemark><name>Axis-Freeman1</name><description>
    &lt;![CDATA[
    &lt;b&gt;Axis-Freeman1&lt;/b&gt;&lt;br&gt;
    County: Mendocino CA&lt;br&gt;
    Pan/Azimuth: 151.63&lt;br&gt;
    &lt;a href="https://img.cdn.prod.alertwest.com/data/img/2725/2026/07/11/Freeman_1_1783752237_3992.jpg"&gt;Latest Camera Image&lt;/a&gt;
    ]]&gt;
    </description><Point><coordinates>-123.753348,39.943947,0</coordinates></Point></Placemark><Placemark><name>Axis-ShaferButte</name><description>
    &lt;![CDATA[
    &lt;b&gt;Axis-ShaferButte&lt;/b&gt;&lt;br&gt;
    County: Boise ID&lt;br&gt;
    Pan/Azimuth: 183.41&lt;br&gt;
    &lt;a href="https://img.cdn.prod.alertwest.com/data/img/12172/2026/07/11/Shafer_Butte_1783752227_9650.jpg"&gt;Latest Camera Image&lt;/a&gt;
    ]]&gt;
    </description><Point><coordinates>-116.088226,43.771214,0</coordinates></Point></Placemark><Placemark><name>Axis-PineMountainLA1</name><description>
    &lt;![CDATA[
    &lt;b&gt;Axis-PineMountainLA1&lt;/b&gt;&lt;br&gt;
    County: LosAngeles CA&lt;br&gt;
    Pan/Azimuth: 47.11&lt;br&gt;
    &lt;a href="https://img.cdn.prod.alertwest.com/data/img/2718/2026/07/11/Pine_Mountain_Los_Angeles_1_1783752248_4236.jpg"&gt;Latest Camera Image&lt;/a&gt;
    ]]&gt;
    </description><Point><coordinates>-117.902197,34.223439,0</coordinates></Point></Placemark><Placemark><name>Axis-CowMtn2</name><description>
    &lt;![CDATA[
    &lt;b&gt;Axis-CowMtn2&lt;/b&gt;&lt;br&gt;
    County: Lake CA&lt;br&gt;
    Pan/Azimuth: 121.02&lt;br&gt;
    &lt;a href="https://img.cdn.prod.alertwest.com/data/img/1637/2026/07/11/Cow_Mtn_2_1783752239_8089.jpg"&gt;Latest Camera Image&lt;/a&gt;
    ]]&gt;
    </description><Point><coordinates>-123.076797,39.130699,0</coordinates></Point></Placemark><Placemark><name>Axis-WiedemannHill</name><description>
    &lt;![CDATA[
    &lt;b&gt;Axis-WiedemannHill&lt;/b&gt;&lt;br&gt;
    County: Alameda CA&lt;br&gt;
    Pan/Azimuth: 188.68&lt;br&gt;
    &lt;a href="https://img.cdn.prod.alertwest.com/data/img/2502/2026/07/11/Wiedemann_Hill_1783752243_8745.jpg"&gt;Latest Camera Image&lt;/a&gt;
    ]]&gt;
    </description><Point><coordinates>-121.994751,37.738091,0</coordinates></Point></Placemark><Placemark><name>Axis-HangingTree2</name><description>
    &lt;![CDATA[
    &lt;b&gt;Axis-HangingTree2&lt;/b&gt;&lt;br&gt;
    County: SanLuisObispo CA&lt;br&gt;
    Pan/Azimuth: 211.28&lt;br&gt;
    &lt;a href="https://img.cdn.prod.alertwest.com/data/img/2006/2026/07/11/Hanging_Tree_2_1783752241_3245.jpg"&gt;Latest Camera Image&lt;/a&gt;
    ]]&gt;
    </description><Point><coordinates>-120.666908,35.573570,0</coordinates></Point></Placemark><Placemark><name>Axis-JordanPeak1</name><description>
    &lt;![CDATA[
    &lt;b&gt;Axis-JordanPeak1&lt;/b&gt;&lt;br&gt;
    County: Tulare CA&lt;br&gt;
    Pan/Azimuth: 307.01&lt;br&gt;
    &lt;a href="https://img.cdn.prod.alertwest.com/data/img/11028/2026/02/18/Jordan_Peak_1_1771453469_7834.jpg"&gt;Latest Camera Image&lt;/a&gt;
    ]]&gt;
    </description><Point><coordinates>-118.598204,36.181421,0</coordinates></Point></Placemark><Placemark><name>Axis-EastQuincy</name><description>
    &lt;![CDATA[
    &lt;b&gt;Axis-EastQuincy&lt;/b&gt;&lt;br&gt;
    County: Plumas CA&lt;br&gt;
    Pan/Azimuth: 354.64&lt;br&gt;
    &lt;a href="https://img.cdn.prod.alertwest.com/data/img/1643/2026/07/11/East_Quincy_1783752203_4868.jpg"&gt;Latest Camera Image&lt;/a&gt;
    ]]&gt;
    </description><Point><coordinates>-120.887642,39.912891,0</coordinates></Point></Placemark><Placemark><name>Axis-MtDiabloWest</name><description>
    &lt;![CDATA[
    &lt;b&gt;Axis-MtDiabloWest&lt;/b&gt;&lt;br&gt;
    County: ContraCosta CA&lt;br&gt;
    Pan/Azimuth: 118.71&lt;br&gt;
    &lt;a href="https://img.cdn.prod.alertwest.com/data/img/2158/2026/07/11/Mt_Diablo_West_1783752244_9746.jpg"&gt;Latest Camera Image&lt;/a&gt;
    ]]&gt;
    </description><Point><coordinates>-121.919083,37.881699,0</coordinates></Point></Placemark><Placemark><name>Axis-BearMtnFresno1</name><description>
    &lt;![CDATA[
    &lt;b&gt;Axis-BearMtnFresno1&lt;/b&gt;&lt;br&gt;
    County: Fresno CA&lt;br&gt;
    Pan/Azimuth: 113.29&lt;br&gt;
    &lt;a href="https://img.cdn.prod.alertwest.com/data/img/1814/2026/07/11/Bear_Mtn_Fresno_1_1783752247_5538.jpg"&gt;Latest Camera Image&lt;/a&gt;
    ]]&gt;
    </description><Point><coordinates>-119.280029,36.746307,0</coordinates></Point></Placemark><Placemark><name>Axis-MoccasinPeak</name><description>
    &lt;![CDATA[
    &lt;b&gt;Axis-MoccasinPeak&lt;/b&gt;&lt;br&gt;
    County: Tuolumne CA&lt;br&gt;
    Pan/Azimuth: 28.84&lt;br&gt;
    &lt;a href="https://img.cdn.prod.alertwest.com/data/img/2129/2026/07/11/Moccasin_Peak_1_1783752238_4546.jpg"&gt;Latest Camera Image&lt;/a&gt;
    ]]&gt;
    </description><Point><coordinates>-120.328102,37.805199,0</coordinates></Point></Placemark><Placemark><name>Axis-RoundMtnModoc1</name><description>
    &lt;![CDATA[
    &lt;b&gt;Axis-RoundMtnModoc1&lt;/b&gt;&lt;br&gt;
    County: Siskiyou CA&lt;br&gt;
    Pan/Azimuth: 260.69&lt;br&gt;
    &lt;a href="https://img.cdn.prod.alertwest.com/data/img/4716/2026/07/11/Round_Mtn_Modoc_1_1783752243_7507.jpg"&gt;Latest Camera Image&lt;/a&gt;
    ]]&gt;
    </description><Point><coordinates>-121.462380,41.427350,0</coordinates></Point></Placemark><Placemark><name>Axis-CalaverasNV</name><description>
    &lt;![CDATA[
    &lt;b&gt;Axis-CalaverasNV&lt;/b&gt;&lt;br&gt;
    County: Storey NV&lt;br&gt;
    Pan/Azimuth: 355.56&lt;br&gt;
    &lt;a href="https://img.cdn.prod.alertwest.com/data/img/12184/2026/07/11/Calaveras_NV_1783752237_7251.jpg"&gt;Latest Camera Image&lt;/a&gt;
    ]]&gt;
    </description><Point><coordinates>-119.649605,39.356606,0</coordinates></Point></Placemark><Placemark><name>Axis-SignalPeakNV1</name><description>
    &lt;![CDATA[
    &lt;b&gt;Axis-SignalPeakNV1&lt;/b&gt;&lt;br&gt;
    County: Nevada CA&lt;br&gt;
    Pan/Azimuth: 272.01&lt;br&gt;
    &lt;a href="https://img.cdn.prod.alertwest.com/data/img/1722/2026/07/11/Signal_Peak_NVCO_1_1783752248_1266.jpg"&gt;Latest Camera Image&lt;/a&gt;
    ]]&gt;
    </description><Point><coordinates>-120.535828,39.338840,0</coordinates></Point></Placemark><Placemark><name>Axis-PierceMtn1</name><description>
    &lt;![CDATA[
    &lt;b&gt;Axis-PierceMtn1&lt;/b&gt;&lt;br&gt;
    County: Humboldt CA&lt;br&gt;
    Pan/Azimuth: 186.10&lt;br&gt;
    &lt;a href="https://img.cdn.prod.alertwest.com/data/img/2250/2026/07/11/Pierce_Mtn_1_1783752236_4051.jpg"&gt;Latest Camera Image&lt;/a&gt;
    ]]&gt;
    </description><Point><coordinates>-124.120468,40.417099,0</coordinates></Point></Placemark><Placemark><name>Axis-DuncanRanch1</name><description>
    &lt;![CDATA[
    &lt;b&gt;Axis-DuncanRanch1&lt;/b&gt;&lt;br&gt;
    County: Kern CA&lt;br&gt;
    Pan/Azimuth: 109.76&lt;br&gt;
    &lt;a href="https://img.cdn.prod.alertwest.com/data/img/1947/2026/07/11/Duncan_Ranch_1_1783752248_6436.jpg"&gt;Latest Camera Image&lt;/a&gt;
    ]]&gt;
    </description><Point><coordinates>-120.179970,35.777916,0</coordinates></Point></Placemark><Placemark><name>Axis-SeiglerMtn1</name><description>
    &lt;![CDATA[
    &lt;b&gt;Axis-SeiglerMtn1&lt;/b&gt;&lt;br&gt;
    County: Lake CA&lt;br&gt;
    Pan/Azimuth: 8.77&lt;br&gt;
    &lt;a href="https://img.cdn.prod.alertwest.com/data/img/1750/2026/07/11/Seigler_Mtn_1_1783752209_2742.jpg"&gt;Latest Camera Image&lt;/a&gt;
    ]]&gt;
    </description><Point><coordinates>-122.709686,38.873997,0</coordinates></Point></Placemark><Placemark><name>Axis-PressonHill1</name><description>
    &lt;![CDATA[
    &lt;b&gt;Axis-PressonHill1&lt;/b&gt;&lt;br&gt;
    County: SantaClara CA&lt;br&gt;
    Pan/Azimuth: 246.31&lt;br&gt;
    &lt;a href="https://img.cdn.prod.alertwest.com/data/img/2277/2026/07/11/Presson_Hill_1_1783752248_3175.jpg"&gt;Latest Camera Image&lt;/a&gt;
    ]]&gt;
    </description><Point><coordinates>-121.926453,37.166565,0</coordinates></Point></Placemark><Placemark><name>Axis-AntelopeYreka2</name><description>
    &lt;![CDATA[
    &lt;b&gt;Axis-AntelopeYreka2&lt;/b&gt;&lt;br&gt;
    County: Siskiyou CA&lt;br&gt;
    Pan/Azimuth: 5.82&lt;br&gt;
    &lt;a href="https://img.cdn.prod.alertwest.com/data/img/1607/2026/07/11/Antelope_Mtn_Yreka_2_1783752244_4461.jpg"&gt;Latest Camera Image&lt;/a&gt;
    ]]&gt;
    </description><Point><coordinates>-122.624847,41.610207,0</coordinates></Point></Placemark><Placemark><name>Axis-Orcutt1</name><description>
    &lt;![CDATA[
    &lt;b&gt;Axis-Orcutt1&lt;/b&gt;&lt;br&gt;
    County: SantaBarbara CA&lt;br&gt;
    Pan/Azimuth: 263.08&lt;br&gt;
    &lt;a href="https://img.cdn.prod.alertwest.com/data/img/2225/2026/07/11/Orcutt_1_1783752237_5735.jpg"&gt;Latest Camera Image&lt;/a&gt;
    ]]&gt;
    </description><Point><coordinates>-120.505302,34.865398,0</coordinates></Point></Placemark><Placemark><name>Axis-Burdell</name><description>
    &lt;![CDATA[
    &lt;b&gt;Axis-Burdell&lt;/b&gt;&lt;br&gt;
    County: Marin CA&lt;br&gt;
    Pan/Azimuth: 342.88&lt;br&gt;
    &lt;a href="https://img.cdn.prod.alertwest.com/data/img/2153/2026/07/11/Mt_Burdell_1_1783752241_4765.jpg"&gt;Latest Camera Image&lt;/a&gt;
    ]]&gt;
    </description><Point><coordinates>-122.593246,38.149868,0</coordinates></Point></Placemark><Placemark><name>Axis-SantiagoPeakCalOESN</name><description>
    &lt;![CDATA[
    &lt;b&gt;Axis-SantiagoPeakCalOESN&lt;/b&gt;&lt;br&gt;
    County: Riverside CA&lt;br&gt;
    Pan/Azimuth: 343.17&lt;br&gt;
    &lt;a href="https://img.cdn.prod.alertwest.com/data/img/2369/2026/07/11/Santiago_Peak_CalOES_N_1783752240_2097.jpg"&gt;Latest Camera Image&lt;/a&gt;
    ]]&gt;
    </description><Point><coordinates>-117.534103,33.711151,0</coordinates></Point></Placemark><Placemark><name>Axis-PleasantsWest1</name><description>
    &lt;![CDATA[
    &lt;b&gt;Axis-PleasantsWest1&lt;/b&gt;&lt;br&gt;
    County: Orange CA&lt;br&gt;
    Pan/Azimuth: 188.01&lt;br&gt;
    &lt;a href="https://img.cdn.prod.alertwest.com/data/img/2263/2026/07/11/Pleasants_West_1_1783752248_1066.jpg"&gt;Latest Camera Image&lt;/a&gt;
    ]]&gt;
    </description><Point><coordinates>-117.623802,33.797199,0</coordinates></Point></Placemark><Placemark><name>Axis-Volcanoville</name><description>
    &lt;![CDATA[
    &lt;b&gt;Axis-Volcanoville&lt;/b&gt;&lt;br&gt;
    County: El Dorado CA&lt;br&gt;
    Pan/Azimuth: &lt;br&gt;
    &lt;a href=""&gt;Latest Camera Image&lt;/a&gt;
    ]]&gt;
    </description><Point><coordinates>-120.798836,38.980907,0</coordinates></Point></Placemark><Placemark><name>Axis-MtAukum2</name><description>
    &lt;![CDATA[
    &lt;b&gt;Axis-MtAukum2&lt;/b&gt;&lt;br&gt;
    County: eldorado CA&lt;br&gt;
    Pan/Azimuth: 94.84&lt;br&gt;
    &lt;a href="https://img.cdn.prod.alertwest.com/data/img/2149/2026/07/11/Mt_Aukum_2_1783752245_5637.jpg"&gt;Latest Camera Image&lt;/a&gt;
    ]]&gt;
    </description><Point><coordinates>-120.726982,38.573868,0</coordinates></Point></Placemark><Placemark><name>Axis-FishRockEast</name><description>
    &lt;![CDATA[
    &lt;b&gt;Axis-FishRockEast&lt;/b&gt;&lt;br&gt;
    County: Mendocino CA&lt;br&gt;
    Pan/Azimuth: 175.40&lt;br&gt;
    &lt;a href="https://img.cdn.prod.alertwest.com/data/img/1975/2026/07/11/Fish_Rock_East_1783752242_6430.jpg"&gt;Latest Camera Image&lt;/a&gt;
    ]]&gt;
    </description><Point><coordinates>-123.530296,38.834000,0</coordinates></Point></Placemark><Placemark><name>Axis-Peavine</name><description>
    &lt;![CDATA[
    &lt;b&gt;Axis-Peavine&lt;/b&gt;&lt;br&gt;
    County: Washoe NV&lt;br&gt;
    Pan/Azimuth: 0.30&lt;br&gt;
    &lt;a href="https://img.cdn.prod.alertwest.com/data/img/12169/2026/07/11/Peavine_Peak_NV_1783752210_4774.jpg"&gt;Latest Camera Image&lt;/a&gt;
    ]]&gt;
    </description><Point><coordinates>-119.939743,39.577221,0</coordinates></Point></Placemark><Placemark><name>Axis-MtVaca5</name><description>
    &lt;![CDATA[
    &lt;b&gt;Axis-MtVaca5&lt;/b&gt;&lt;br&gt;
    County: Napa CA&lt;br&gt;
    Pan/Azimuth: 283.91&lt;br&gt;
    &lt;a href="https://img.cdn.prod.alertwest.com/data/img/1684/2026/07/11/Mt_Vaca_5_1783752235_7896.jpg"&gt;Latest Camera Image&lt;/a&gt;
    ]]&gt;
    </description><Point><coordinates>-122.118202,38.414600,0</coordinates></Point></Placemark><Placemark><name>Axis-WolfMtn2</name><description>
    &lt;![CDATA[
    &lt;b&gt;Axis-WolfMtn2&lt;/b&gt;&lt;br&gt;
    County: Nevada CA&lt;br&gt;
    Pan/Azimuth: 97.54&lt;br&gt;
    &lt;a href="https://img.cdn.prod.alertwest.com/data/img/1747/2026/07/11/Wolf_Mtn_2_1783752244_1584.jpg"&gt;Latest Camera Image&lt;/a&gt;
    ]]&gt;
    </description><Point><coordinates>-121.099701,39.133999,0</coordinates></Point></Placemark><Placemark><name>Axis-GypsumCanyon1</name><description>
    &lt;![CDATA[
    &lt;b&gt;Axis-GypsumCanyon1&lt;/b&gt;&lt;br&gt;
    County: Orange CA&lt;br&gt;
    Pan/Azimuth: 151.49&lt;br&gt;
    &lt;a href="https://img.cdn.prod.alertwest.com/data/img/2003/2026/07/11/Gypsum_Canyon_1_1783752234_3881.jpg"&gt;Latest Camera Image&lt;/a&gt;
    ]]&gt;
    </description><Point><coordinates>-117.745430,33.893887,0</coordinates></Point></Placemark><Placemark><name>Axis-Williams1</name><description>
    &lt;![CDATA[
    &lt;b&gt;Axis-Williams1&lt;/b&gt;&lt;br&gt;
    County: Colusa CA&lt;br&gt;
    Pan/Azimuth: 234.58&lt;br&gt;
    &lt;a href="https://img.cdn.prod.alertwest.com/data/img/4705/2026/07/11/Williams_1783752234_2817.jpg"&gt;Latest Camera Image&lt;/a&gt;
    ]]&gt;
    </description><Point><coordinates>-122.164341,39.153058,0</coordinates></Point></Placemark><Placemark><name>Axis-Satterlee</name><description>
    &lt;![CDATA[
    &lt;b&gt;Axis-Satterlee&lt;/b&gt;&lt;br&gt;
    County: Humboldt CA&lt;br&gt;
    Pan/Azimuth: 352.17&lt;br&gt;
    &lt;a href="https://img.cdn.prod.alertwest.com/data/img/2098/2026/07/11/Mail_Ridge_Satterlee_1_1783752180_1427.jpg"&gt;Latest Camera Image&lt;/a&gt;
    ]]&gt;
    </description><Point><coordinates>-123.708305,40.202602,0</coordinates></Point></Placemark><Placemark><name>Axis-Flournoy</name><description>
    &lt;![CDATA[
    &lt;b&gt;Axis-Flournoy&lt;/b&gt;&lt;br&gt;
    County: Tehama CA&lt;br&gt;
    Pan/Azimuth: 272.26&lt;br&gt;
    &lt;a href="https://img.cdn.prod.alertwest.com/data/img/1742/2026/07/11/Flournoy_1783752235_8866.jpg"&gt;Latest Camera Image&lt;/a&gt;
    ]]&gt;
    </description><Point><coordinates>-122.340073,39.944614,0</coordinates></Point></Placemark><Placemark><name>Axis-KyleCanyon</name><description>
    &lt;![CDATA[
    &lt;b&gt;Axis-KyleCanyon&lt;/b&gt;&lt;br&gt;
    County: Clark NV&lt;br&gt;
    Pan/Azimuth: 261.38&lt;br&gt;
    &lt;a href="https://img.cdn.prod.alertwest.com/data/img/12206/2026/07/11/Kyle_Canyon_1783752242_1629.jpg"&gt;Latest Camera Image&lt;/a&gt;
    ]]&gt;
    </description><Point><coordinates>-115.563652,36.270847,0</coordinates></Point></Placemark><Placemark><name>STtest</name><description>
    &lt;![CDATA[
    &lt;b&gt;STtest&lt;/b&gt;&lt;br&gt;
    County:  CA&lt;br&gt;
    Pan/Azimuth: &lt;br&gt;
    &lt;a href=""&gt;Latest Camera Image&lt;/a&gt;
    ]]&gt;
    </description><Point><coordinates>-121.852100,39.802290,0</coordinates></Point></Placemark><Placemark><name>Axis-Henrietta2</name><description>
    &lt;![CDATA[
    &lt;b&gt;Axis-Henrietta2&lt;/b&gt;&lt;br&gt;
    County: SanBenito CA&lt;br&gt;
    Pan/Azimuth: 16.26&lt;br&gt;
    &lt;a href="https://img.cdn.prod.alertwest.com/data/img/2016/2026/07/11/Henrietta_Peak_2_1783752169_2898.jpg"&gt;Latest Camera Image&lt;/a&gt;
    ]]&gt;
    </description><Point><coordinates>-121.230103,36.903400,0</coordinates></Point></Placemark><Placemark><name>Axis-BaldwinHills2</name><description>
    &lt;![CDATA[
    &lt;b&gt;Axis-BaldwinHills2&lt;/b&gt;&lt;br&gt;
    County: LosAngeles CA&lt;br&gt;
    Pan/Azimuth: 0.00&lt;br&gt;
    &lt;a href="https://img.cdn.prod.alertwest.com/data/img/1806/2026/07/01/Baldwin_Hills_2_1782936516_2975.jpg"&gt;Latest Camera Image&lt;/a&gt;
    ]]&gt;
    </description><Point><coordinates>-118.363129,34.005314,0</coordinates></Point></Placemark><Placemark><name>Axis-PanocheMtn1</name><description>
    &lt;![CDATA[
    &lt;b&gt;Axis-PanocheMtn1&lt;/b&gt;&lt;br&gt;
    County: Fresno CA&lt;br&gt;
    Pan/Azimuth: 337.40&lt;br&gt;
    &lt;a href="https://img.cdn.prod.alertwest.com/data/img/2675/2026/07/11/Panoche_Mtn_1_1783752174_1941.jpg"&gt;Latest Camera Image&lt;/a&gt;
    ]]&gt;
    </description><Point><coordinates>-120.764717,36.725592,0</coordinates></Point></Placemark><Placemark><name>Axis-WhitakerMiddlePeak2</name><description>
    &lt;![CDATA[
    &lt;b&gt;Axis-WhitakerMiddlePeak2&lt;/b&gt;&lt;br&gt;
    County: LosAngeles CA&lt;br&gt;
    Pan/Azimuth: 18.64&lt;br&gt;
    &lt;a href="https://img.cdn.prod.alertwest.com/data/img/2605/2026/07/11/Whitaker_Middle_Peak_2_1783752218_4479.jpg"&gt;Latest Camera Image&lt;/a&gt;
    ]]&gt;
    </description><Point><coordinates>-118.740117,34.569444,0</coordinates></Point></Placemark><Placemark><name>Axis-Edith</name><description>
    &lt;![CDATA[
    &lt;b&gt;Axis-Edith&lt;/b&gt;&lt;br&gt;
    County: Mariposa CA&lt;br&gt;
    Pan/Azimuth: 143.03&lt;br&gt;
    &lt;a href="https://img.cdn.prod.alertwest.com/data/img/1953/2026/07/11/Edith_Hill_1_1783752246_7707.jpg"&gt;Latest Camera Image&lt;/a&gt;
    ]]&gt;
    </description><Point><coordinates>-120.120667,37.747513,0</coordinates></Point></Placemark><Placemark><name>Axis-Rockpile1</name><description>
    &lt;![CDATA[
    &lt;b&gt;Axis-Rockpile1&lt;/b&gt;&lt;br&gt;
    County: Sonoma CA&lt;br&gt;
    Pan/Azimuth: 225.90&lt;br&gt;
    &lt;a href="https://img.cdn.prod.alertwest.com/data/img/11024/2026/07/11/Rockpile_1_1783752197_2029.jpg"&gt;Latest Camera Image&lt;/a&gt;
    ]]&gt;
    </description><Point><coordinates>-123.053902,38.718899,0</coordinates></Point></Placemark>