<?xml version='1.0' encoding='utf-8'?>
<kml xmlns="http://www.opengis.net/kml/2.2"><Document><name>ALERTCalifornia / ALERTWest Cameras</name><Folder><name>Public Wildfire Cameras</name><Placemark><name>Axis-MtAukum1</name><description>
    &lt;![CDATA[
    &lt;b&gt;Axis-MtAukum1&lt;/b&gt;&lt;br&gt;
    County: eldorado CA&lt;br&gt;
    Pan/Azimuth: 198.93&lt;br&gt;
    &lt;a href="https://img.cdn.prod.alertwest.com/data/img/2148/2026/07/07/Mt_Aukum_1_1783433637_3693.jpg"&gt;Latest Camera Image&lt;/a&gt;
    ]]&gt;
    </description><Point><coordinates>-120.726982,38.573868,0</coordinates></Point></Placemark><Placemark><name>Axis-CoonHollow2</name><description>
    &lt;![CDATA[
    &lt;b&gt;Axis-CoonHollow2&lt;/b&gt;&lt;br&gt;
    County: eldorado CA&lt;br&gt;
    Pan/Azimuth: 132.40&lt;br&gt;
    &lt;a href="https://img.cdn.prod.alertwest.com/data/img/1906/2026/07/07/Coon_Hollow_2_1783433635_7195.jpg"&gt;Latest Camera Image&lt;/a&gt;
    ]]&gt;
    </description><Point><coordinates>-120.808357,38.723431,0</coordinates></Point></Placemark><Placemark><name>Axis-MtElizabeth2</name><description>
    &lt;![CDATA[
    &lt;b&gt;Axis-MtElizabeth2&lt;/b&gt;&lt;br&gt;
    County: Tuolumne CA&lt;br&gt;
    Pan/Azimuth: 248.70&lt;br&gt;
    &lt;a href="https://img.cdn.prod.alertwest.com/data/img/2160/2026/07/07/Mt_Elizabeth_2_1783433631_9377.jpg"&gt;Latest Camera Image&lt;/a&gt;
    ]]&gt;
    </description><Point><coordinates>-120.247307,38.063023,0</coordinates></Point></Placemark><Placemark><name>Axis-VolcanTractIIINorth</name><description>
    &lt;![CDATA[
    &lt;b&gt;Axis-VolcanTractIIINorth&lt;/b&gt;&lt;br&gt;
    County: SanDiego CA&lt;br&gt;
    Pan/Azimuth: 317.77&lt;br&gt;
    &lt;a href="https://img.cdn.prod.alertwest.com/data/img/2480/2026/07/07/Volcan_Tract_III_North_1783433635_7093.jpg"&gt;Latest Camera Image&lt;/a&gt;
    ]]&gt;
    </description><Point><coordinates>-116.617058,33.138256,0</coordinates></Point></Placemark><Placemark><name>Axis-RockCreek</name><description>
    &lt;![CDATA[
    &lt;b&gt;Axis-RockCreek&lt;/b&gt;&lt;br&gt;
    County: eldorado CA&lt;br&gt;
    Pan/Azimuth: 242.02&lt;br&gt;
    &lt;a href="https://img.cdn.prod.alertwest.com/data/img/2320/2026/07/07/Rock_Creek_1783433636_5426.jpg"&gt;Latest Camera Image&lt;/a&gt;
    ]]&gt;
    </description><Point><coordinates>-120.742035,38.796543,0</coordinates></Point></Placemark><Placemark><name>Axis-CummingsMtn1</name><description>
    &lt;![CDATA[
    &lt;b&gt;Axis-CummingsMtn1&lt;/b&gt;&lt;br&gt;
    County: Kern CA&lt;br&gt;
    Pan/Azimuth: 225.80&lt;br&gt;
    &lt;a href="https://img.cdn.prod.alertwest.com/data/img/1921/2026/07/07/Cummings_Mtn_1_1783433626_1170.jpg"&gt;Latest Camera Image&lt;/a&gt;
    ]]&gt;
    </description><Point><coordinates>-118.570206,35.041489,0</coordinates></Point></Placemark><Placemark><name>Axis-TelegraphHill</name><description>
    &lt;![CDATA[
    &lt;b&gt;Axis-TelegraphHill&lt;/b&gt;&lt;br&gt;
    County: Tuolumne CA&lt;br&gt;
    Pan/Azimuth: 315.91&lt;br&gt;
    &lt;a href="https://img.cdn.prod.alertwest.com/data/img/2444/2026/07/07/Telegraph_Hill_1_1783433627_5133.jpg"&gt;Latest Camera Image&lt;/a&gt;
    ]]&gt;
    </description><Point><coordinates>-120.351799,38.030800,0</coordinates></Point></Placemark><Placemark><name>Axis-DunlapAcres1</name><description>
    &lt;![CDATA[
    &lt;b&gt;Axis-DunlapAcres1&lt;/b&gt;&lt;br&gt;
    County: SanBernardino CA&lt;br&gt;
    Pan/Azimuth: 347.45&lt;br&gt;
    &lt;a href="https://img.cdn.prod.alertwest.com/data/img/2765/2026/07/07/Dunlap_Acres_1_1783433637_2104.jpg"&gt;Latest Camera Image&lt;/a&gt;
    ]]&gt;
    </description><Point><coordinates>-117.097948,34.044438,0</coordinates></Point></Placemark><Placemark><name>Axis-SearsPoint</name><description>
    &lt;![CDATA[
    &lt;b&gt;Axis-SearsPoint&lt;/b&gt;&lt;br&gt;
    County: Sonoma CA&lt;br&gt;
    Pan/Azimuth: 353.45&lt;br&gt;
    &lt;a href="https://img.cdn.prod.alertwest.com/data/img/2375/2026/07/07/Sears_Point_1783433607_6074.jpg"&gt;Latest Camera Image&lt;/a&gt;
    ]]&gt;
    </description><Point><coordinates>-122.463585,38.160400,0</coordinates></Point></Placemark><Placemark><name>Axis-Rockpile2</name><description>
    &lt;![CDATA[
    &lt;b&gt;Axis-Rockpile2&lt;/b&gt;&lt;br&gt;
    County: Sonoma CA&lt;br&gt;
    Pan/Azimuth: 135.34&lt;br&gt;
    &lt;a href="https://img.cdn.prod.alertwest.com/data/img/11025/2026/07/07/Rockpile_2_1783433635_6353.jpg"&gt;Latest Camera Image&lt;/a&gt;
    ]]&gt;
    </description><Point><coordinates>-123.053902,38.718899,0</coordinates></Point></Placemark><Placemark><name>Axis-WestProspect2</name><description>
    &lt;![CDATA[
    &lt;b&gt;Axis-WestProspect2&lt;/b&gt;&lt;br&gt;
    County: Shasta CA&lt;br&gt;
    Pan/Azimuth: 217.89&lt;br&gt;
    &lt;a href="https://img.cdn.prod.alertwest.com/data/img/11051/2026/07/07/West_Prospect_Peak_2_1783433611_1401.jpg"&gt;Latest Camera Image&lt;/a&gt;
    ]]&gt;
    </description><Point><coordinates>-121.379647,40.593918,0</coordinates></Point></Placemark><Placemark><name>Axis-Avalon1</name><description>
    &lt;![CDATA[
    &lt;b&gt;Axis-Avalon1&lt;/b&gt;&lt;br&gt;
    County: LosAngeles CA&lt;br&gt;
    Pan/Azimuth: 285.58&lt;br&gt;
    &lt;a href="https://img.cdn.prod.alertwest.com/data/img/1797/2026/07/07/Avalon_Catalina_1_1783433635_2352.jpg"&gt;Latest Camera Image&lt;/a&gt;
    ]]&gt;
    </description><Point><coordinates>-118.318413,33.339062,0</coordinates></Point></Placemark><Placemark><name>Axis-Ponderosa</name><description>
    &lt;![CDATA[
    &lt;b&gt;Axis-Ponderosa&lt;/b&gt;&lt;br&gt;
    County: Tuolumne CA&lt;br&gt;
    Pan/Azimuth: 96.47&lt;br&gt;
    &lt;a href="https://img.cdn.prod.alertwest.com/data/img/2268/2026/07/07/Ponderosa_1783416778_4962.jpg"&gt;Latest Camera Image&lt;/a&gt;
    ]]&gt;
    </description><Point><coordinates>-120.183594,37.824326,0</coordinates></Point></Placemark><Placemark><name>Axis-BlackMtnBoundary</name><description>
    &lt;![CDATA[
    &lt;b&gt;Axis-BlackMtnBoundary&lt;/b&gt;&lt;br&gt;
    County: Boundary ID&lt;br&gt;
    Pan/Azimuth: 328.72&lt;br&gt;
    &lt;a href="https://img.cdn.prod.alertwest.com/data/img/8598/2026/07/07/Black_Mtn_Boundary_1783433635_9884.jpg"&gt;Latest Camera Image&lt;/a&gt;
    ]]&gt;
    </description><Point><coordinates>-116.257748,48.610410,0</coordinates></Point></Placemark><Placemark><name>Axis-ShastaLake2</name><description>
    &lt;![CDATA[
    &lt;b&gt;Axis-ShastaLake2&lt;/b&gt;&lt;br&gt;
    County: Shasta CA&lt;br&gt;
    Pan/Azimuth: 343.92&lt;br&gt;
    &lt;a href="https://img.cdn.prod.alertwest.com/data/img/1683/2026/07/07/Shasta_Lake_2_1783433627_2332.jpg"&gt;Latest Camera Image&lt;/a&gt;
    ]]&gt;
    </description><Point><coordinates>-122.414551,40.657211,0</coordinates></Point></Placemark><Placemark><name>Axis-PleasantsWest2</name><description>
    &lt;![CDATA[
    &lt;b&gt;Axis-PleasantsWest2&lt;/b&gt;&lt;br&gt;
    County: Orange CA&lt;br&gt;
    Pan/Azimuth: 239.43&lt;br&gt;
    &lt;a href="https://img.cdn.prod.alertwest.com/data/img/2264/2026/07/07/Pleasants_West_2_1783433630_5036.jpg"&gt;Latest Camera Image&lt;/a&gt;
    ]]&gt;
    </description><Point><coordinates>-117.623802,33.797199,0</coordinates></Point></Placemark><Placemark><name>Axis-MtRodoni1</name><description>
    &lt;![CDATA[
    &lt;b&gt;Axis-MtRodoni1&lt;/b&gt;&lt;br&gt;
    County: SantaClara CA&lt;br&gt;
    Pan/Azimuth: 35.43&lt;br&gt;
    &lt;a href="https://img.cdn.prod.alertwest.com/data/img/2188/2026/07/07/Mt_Rodoni_1_1783433614_7797.jpg"&gt;Latest Camera Image&lt;/a&gt;
    ]]&gt;
    </description><Point><coordinates>-122.032600,37.218102,0</coordinates></Point></Placemark><Placemark><name>Axis-BarnabeEast</name><description>
    &lt;![CDATA[
    &lt;b&gt;Axis-BarnabeEast&lt;/b&gt;&lt;br&gt;
    County: Marin CA&lt;br&gt;
    Pan/Azimuth: 90.96&lt;br&gt;
    &lt;a href="https://img.cdn.prod.alertwest.com/data/img/1809/2026/07/07/Barnabe_Peak_East_1783433627_2382.jpg"&gt;Latest Camera Image&lt;/a&gt;
    ]]&gt;
    </description><Point><coordinates>-122.716362,38.026779,0</coordinates></Point></Placemark><Placemark><name>Axis-Henrietta</name><description>
    &lt;![CDATA[
    &lt;b&gt;Axis-Henrietta&lt;/b&gt;&lt;br&gt;
    County: SanBenito CA&lt;br&gt;
    Pan/Azimuth: 213.33&lt;br&gt;
    &lt;a href="https://img.cdn.prod.alertwest.com/data/img/2015/2026/07/07/Henrietta_Peak_1_1783433608_9157.jpg"&gt;Latest Camera Image&lt;/a&gt;
    ]]&gt;
    </description><Point><coordinates>-121.230103,36.903400,0</coordinates></Point></Placemark><Placemark><name>Axis-MarzanoPeak1</name><description>
    &lt;![CDATA[
    &lt;b&gt;Axis-MarzanoPeak1&lt;/b&gt;&lt;br&gt;
    County: Inyo CA&lt;br&gt;
    Pan/Azimuth: 254.00&lt;br&gt;
    &lt;a href="https://img.cdn.prod.alertwest.com/data/img/2101/2026/07/07/Marzano_Peak_1_1783433638_6181.jpg"&gt;Latest Camera Image&lt;/a&gt;
    ]]&gt;
    </description><Point><coordinates>-118.107498,37.205269,0</coordinates></Point></Placemark><Placemark><name>Axis-Montezuma</name><description>
    &lt;![CDATA[
    &lt;b&gt;Axis-Montezuma&lt;/b&gt;&lt;br&gt;
    County: Esmeralda NV&lt;br&gt;
    Pan/Azimuth: 313.17&lt;br&gt;
    &lt;a href="https://img.cdn.prod.alertwest.com/data/img/12215/2026/07/07/Montezuma_Pk_1783433628_3611.jpg"&gt;Latest Camera Image&lt;/a&gt;
    ]]&gt;
    </description><Point><coordinates>-117.383800,37.700800,0</coordinates></Point></Placemark><Placemark><name>Axis-BennettMtn</name><description>
    &lt;![CDATA[
    &lt;b&gt;Axis-BennettMtn&lt;/b&gt;&lt;br&gt;
    County: Elmore ID&lt;br&gt;
    Pan/Azimuth: 50.08&lt;br&gt;
    &lt;a href="https://img.cdn.prod.alertwest.com/data/img/12157/2026/07/07/Bennett_Mtn_ID_1783433633_3841.jpg"&gt;Latest Camera Image&lt;/a&gt;
    ]]&gt;
    </description><Point><coordinates>-115.434059,43.249199,0</coordinates></Point></Placemark><Placemark><name>Axis-MtnHighEast1</name><description>
    &lt;![CDATA[
    &lt;b&gt;Axis-MtnHighEast1&lt;/b&gt;&lt;br&gt;
    County: LosAngeles CA&lt;br&gt;
    Pan/Azimuth: 332.94&lt;br&gt;
    &lt;a href="https://img.cdn.prod.alertwest.com/data/img/2200/2026/07/07/Mtn_High_East_1_1783433612_2085.jpg"&gt;Latest Camera Image&lt;/a&gt;
    ]]&gt;
    </description><Point><coordinates>-117.682297,34.358002,0</coordinates></Point></Placemark><Placemark><name>Axis-OatNorth2</name><description>
    &lt;![CDATA[
    &lt;b&gt;Axis-OatNorth2&lt;/b&gt;&lt;br&gt;
    County: LosAngeles CA&lt;br&gt;
    Pan/Azimuth: 184.50&lt;br&gt;
    &lt;a href="https://img.cdn.prod.alertwest.com/data/img/2218/2026/07/07/Oat_Mtn_North_2_1783433620_4052.jpg"&gt;Latest Camera Image&lt;/a&gt;
    ]]&gt;
    </description><Point><coordinates>-118.584251,34.324558,0</coordinates></Point></Placemark><Placemark><name>Axis-Cohasset</name><description>
    &lt;![CDATA[
    &lt;b&gt;Axis-Cohasset&lt;/b&gt;&lt;br&gt;
    County: Butte CA&lt;br&gt;
    Pan/Azimuth: 108.23&lt;br&gt;
    &lt;a href="https://img.cdn.prod.alertwest.com/data/img/1896/2026/07/07/Cohasset_Hill_1_1783433630_5550.jpg"&gt;Latest Camera Image&lt;/a&gt;
    ]]&gt;
    </description><Point><coordinates>-121.714600,39.958332,0</coordinates></Point></Placemark><Placemark><name>Axis-Olancha1</name><description>
    &lt;![CDATA[
    &lt;b&gt;Axis-Olancha1&lt;/b&gt;&lt;br&gt;
    County: Inyo CA&lt;br&gt;
    Pan/Azimuth: 295.57&lt;br&gt;
    &lt;a href="https://img.cdn.prod.alertwest.com/data/img/2221/2026/07/07/Olancha_1_1783433619_7593.jpg"&gt;Latest Camera Image&lt;/a&gt;
    ]]&gt;
    </description><Point><coordinates>-118.007256,36.272499,0</coordinates></Point></Placemark><Placemark><name>Axis-PlowsharePeak</name><description>
    &lt;![CDATA[
    &lt;b&gt;Axis-PlowsharePeak&lt;/b&gt;&lt;br&gt;
    County: SantaBarbara CA&lt;br&gt;
    Pan/Azimuth: 52.07&lt;br&gt;
    &lt;a href="https://img.cdn.prod.alertwest.com/data/img/2265/2026/07/07/Plowshare_Peak_1783433633_1969.jpg"&gt;Latest Camera Image&lt;/a&gt;
    ]]&gt;
    </description><Point><coordinates>-120.041016,35.050068,0</coordinates></Point></Placemark><Placemark><name>Axis-PoplarLane</name><description>
    &lt;![CDATA[
    &lt;b&gt;Axis-PoplarLane&lt;/b&gt;&lt;br&gt;
    County: Sierra CA&lt;br&gt;
    Pan/Azimuth: 83.59&lt;br&gt;
    &lt;a href="https://img.cdn.prod.alertwest.com/data/img/1701/2026/07/07/Poplar_Lane_1_1783433632_7701.jpg"&gt;Latest Camera Image&lt;/a&gt;
    ]]&gt;
    </description><Point><coordinates>-121.003593,39.433624,0</coordinates></Point></Placemark><Placemark><name>Axis-MontebelloPreserve</name><description>
    &lt;![CDATA[
    &lt;b&gt;Axis-MontebelloPreserve&lt;/b&gt;&lt;br&gt;
    County: SantaClara CA&lt;br&gt;
    Pan/Azimuth: 216.38&lt;br&gt;
    &lt;a href="https://img.cdn.prod.alertwest.com/data/img/2136/2026/07/07/Montebello_Preserve_1783433629_9570.jpg"&gt;Latest Camera Image&lt;/a&gt;
    ]]&gt;
    </description><Point><coordinates>-122.167801,37.324726,0</coordinates></Point></Placemark><Placemark><name>Axis-SonoraEast</name><description>
    &lt;![CDATA[
    &lt;b&gt;Axis-SonoraEast&lt;/b&gt;&lt;br&gt;
    County: Tuolumne CA&lt;br&gt;
    Pan/Azimuth: 326.52&lt;br&gt;
    &lt;a href="https://img.cdn.prod.alertwest.com/data/img/2405/2026/07/07/Sonora_Peak_East_1783433609_9695.jpg"&gt;Latest Camera Image&lt;/a&gt;
    ]]&gt;
    </description><Point><coordinates>-120.402901,37.979900,0</coordinates></Point></Placemark><Placemark><name>Axis-SaintJohn1</name><description>
    &lt;![CDATA[
    &lt;b&gt;Axis-SaintJohn1&lt;/b&gt;&lt;br&gt;
    County: Glenn CA&lt;br&gt;
    Pan/Azimuth: 316.23&lt;br&gt;
    &lt;a href="https://img.cdn.prod.alertwest.com/data/img/1731/2026/07/07/Saint_John_Mtn_1_1783433619_6011.jpg"&gt;Latest Camera Image&lt;/a&gt;
    ]]&gt;
    </description><Point><coordinates>-122.693298,39.433952,0</coordinates></Point></Placemark><Placemark><name>Axis-PineMtnKern2</name><description>
    &lt;![CDATA[
    &lt;b&gt;Axis-PineMtnKern2&lt;/b&gt;&lt;br&gt;
    County: Kern CA&lt;br&gt;
    Pan/Azimuth: 141.38&lt;br&gt;
    &lt;a href="https://img.cdn.prod.alertwest.com/data/img/2257/2026/07/07/Pine_Mtn_Kern_2_1783433601_5907.jpg"&gt;Latest Camera Image&lt;/a&gt;
    ]]&gt;
    </description><Point><coordinates>-118.771759,35.561169,0</coordinates></Point></Placemark><Placemark><name>Axis-InskipHill2</name><description>
    &lt;![CDATA[
    &lt;b&gt;Axis-InskipHill2&lt;/b&gt;&lt;br&gt;
    County: Tehama CA&lt;br&gt;
    Pan/Azimuth: 112.64&lt;br&gt;
    &lt;a href="https://img.cdn.prod.alertwest.com/data/img/2691/2026/07/07/Inskip_Hill_2_1783433633_5372.jpg"&gt;Latest Camera Image&lt;/a&gt;
    ]]&gt;
    </description><Point><coordinates>-121.945000,40.346111,0</coordinates></Point></Placemark><Placemark><name>Axis-GreenSouth</name><description>
    &lt;![CDATA[
    &lt;b&gt;Axis-GreenSouth&lt;/b&gt;&lt;br&gt;
    County: LosAngeles CA&lt;br&gt;
    Pan/Azimuth: 259.13&lt;br&gt;
    &lt;a href="https://img.cdn.prod.alertwest.com/data/img/1997/2026/07/07/Green_Peak_South_2_1783433624_6904.jpg"&gt;Latest Camera Image&lt;/a&gt;
    ]]&gt;
    </description><Point><coordinates>-118.548820,34.086380,0</coordinates></Point></Placemark><Placemark><name>Warehouse_test</name><description>
    &lt;![CDATA[
    &lt;b&gt;Warehouse_test&lt;/b&gt;&lt;br&gt;
    County:  CA&lt;br&gt;
    Pan/Azimuth: &lt;br&gt;
    &lt;a href=""&gt;Latest Camera Image&lt;/a&gt;
    ]]&gt;
    </description><Point><coordinates>-121.852160,39.802430,0</coordinates></Point></Placemark><Placemark><name>Axis-TVHillMontecito1</name><description>
    &lt;![CDATA[
    &lt;b&gt;Axis-TVHillMontecito1&lt;/b&gt;&lt;br&gt;
    County: SantaBarbara CA&lt;br&gt;
    Pan/Azimuth: 55.49&lt;br&gt;
    &lt;a href="https://img.cdn.prod.alertwest.com/data/img/2749/2026/07/07/TV_Hill_1_1783433635_6152.jpg"&gt;Latest Camera Image&lt;/a&gt;
    ]]&gt;
    </description><Point><coordinates>-119.707666,34.410148,0</coordinates></Point></Placemark><Placemark><name>Axis-SaddlebackLookout2</name><description>
    &lt;![CDATA[
    &lt;b&gt;Axis-SaddlebackLookout2&lt;/b&gt;&lt;br&gt;
    County: Sierra CA&lt;br&gt;
    Pan/Azimuth: 54.32&lt;br&gt;
    &lt;a href="https://img.cdn.prod.alertwest.com/data/img/1713/2026/07/07/Saddleback_Lookout_2_1783433610_3401.jpg"&gt;Latest Camera Image&lt;/a&gt;
    ]]&gt;
    </description><Point><coordinates>-120.864403,39.636600,0</coordinates></Point></Placemark><Placemark><name>Axis-Prospect</name><description>
    &lt;![CDATA[
    &lt;b&gt;Axis-Prospect&lt;/b&gt;&lt;br&gt;
    County: Eureka NV&lt;br&gt;
    Pan/Azimuth: 125.59&lt;br&gt;
    &lt;a href="https://img.cdn.prod.alertwest.com/data/img/12221/2026/07/07/Prospect_Peak_1783433631_9134.jpg"&gt;Latest Camera Image&lt;/a&gt;
    ]]&gt;
    </description><Point><coordinates>-115.998741,39.449730,0</coordinates></Point></Placemark><Placemark><name>Axis-MtDisappointment2</name><description>
    &lt;![CDATA[
    &lt;b&gt;Axis-MtDisappointment2&lt;/b&gt;&lt;br&gt;
    County: LosAngeles CA&lt;br&gt;
    Pan/Azimuth: 256.66&lt;br&gt;
    &lt;a href="https://img.cdn.prod.alertwest.com/data/img/8560/2026/07/07/Mt_Disappointment_2_1783433611_5493.jpg"&gt;Latest Camera Image&lt;/a&gt;
    ]]&gt;
    </description><Point><coordinates>-118.105000,34.246600,0</coordinates></Point></Placemark><Placemark><name>Axis-BloomerLookout2</name><description>
    &lt;![CDATA[
    &lt;b&gt;Axis-BloomerLookout2&lt;/b&gt;&lt;br&gt;
    County: Butte CA&lt;br&gt;
    Pan/Azimuth: 274.44&lt;br&gt;
    &lt;a href="https://img.cdn.prod.alertwest.com/data/img/1619/2026/07/07/Bloomer_Lookout_2_1783433632_1422.jpg"&gt;Latest Camera Image&lt;/a&gt;
    ]]&gt;
    </description><Point><coordinates>-121.463402,39.651001,0</coordinates></Point></Placemark><Placemark><name>Axis-ForestHill1</name><description>
    &lt;![CDATA[
    &lt;b&gt;Axis-ForestHill1&lt;/b&gt;&lt;br&gt;
    County: Placer CA&lt;br&gt;
    Pan/Azimuth: 165.28&lt;br&gt;
    &lt;a href="https://img.cdn.prod.alertwest.com/data/img/2693/2026/07/07/PCWA_Forest_Hill_1_1783433628_9333.jpg"&gt;Latest Camera Image&lt;/a&gt;
    ]]&gt;
    </description><Point><coordinates>-120.811758,39.018964,0</coordinates></Point></Placemark><Placemark><name>Axis-MtBurdellSouth1</name><description>
    &lt;![CDATA[
    &lt;b&gt;Axis-MtBurdellSouth1&lt;/b&gt;&lt;br&gt;
    County: Marin CA&lt;br&gt;
    Pan/Azimuth: 270.43&lt;br&gt;
    &lt;a href="https://img.cdn.prod.alertwest.com/data/img/2668/2026/07/07/Mt_Burdell_South_1783433631_2849.jpg"&gt;Latest Camera Image&lt;/a&gt;
    ]]&gt;
    </description><Point><coordinates>-122.594031,38.145003,0</coordinates></Point></Placemark><Placemark><name>Axis-RockyPoint1</name><description>
    &lt;![CDATA[
    &lt;b&gt;Axis-RockyPoint1&lt;/b&gt;&lt;br&gt;
    County: Kern CA&lt;br&gt;
    Pan/Azimuth: 166.86&lt;br&gt;
    &lt;a href="https://img.cdn.prod.alertwest.com/data/img/2327/2026/07/07/Rocky_Point_1_1783433624_6707.jpg"&gt;Latest Camera Image&lt;/a&gt;
    ]]&gt;
    </description><Point><coordinates>-118.420700,35.686901,0</coordinates></Point></Placemark><Placemark><name>Axis-Winters1</name><description>
    &lt;![CDATA[
    &lt;b&gt;Axis-Winters1&lt;/b&gt;&lt;br&gt;
    County: Yolo CA&lt;br&gt;
    Pan/Azimuth: 197.74&lt;br&gt;
    &lt;a href="https://img.cdn.prod.alertwest.com/data/img/2516/2026/07/07/Winters_1_1783433609_2499.jpg"&gt;Latest Camera Image&lt;/a&gt;
    ]]&gt;
    </description><Point><coordinates>-121.983101,38.521198,0</coordinates></Point></Placemark><Placemark><name>Axis-BearMtnShasta</name><description>
    &lt;![CDATA[
    &lt;b&gt;Axis-BearMtnShasta&lt;/b&gt;&lt;br&gt;
    County: Shasta CA&lt;br&gt;
    Pan/Azimuth: 207.59&lt;br&gt;
    &lt;a href="https://img.cdn.prod.alertwest.com/data/img/1616/2026/07/07/Bear_Mtn_Shasta_1_1783433628_5225.jpg"&gt;Latest Camera Image&lt;/a&gt;
    ]]&gt;
    </description><Point><coordinates>-122.268158,40.719906,0</coordinates></Point></Placemark><Placemark><name>Axis-MtArarat1</name><description>
    &lt;![CDATA[
    &lt;b&gt;Axis-MtArarat1&lt;/b&gt;&lt;br&gt;
    County: eldorado CA&lt;br&gt;
    Pan/Azimuth: 53.93&lt;br&gt;
    &lt;a href="https://img.cdn.prod.alertwest.com/data/img/2696/2026/07/07/Mt_Ararat_1_1783433633_6359.jpg"&gt;Latest Camera Image&lt;/a&gt;
    ]]&gt;
    </description><Point><coordinates>-120.940079,38.853045,0</coordinates></Point></Placemark><Placemark><name>Axis-SunolRidge1</name><description>
    &lt;![CDATA[
    &lt;b&gt;Axis-SunolRidge1&lt;/b&gt;&lt;br&gt;
    County: Alameda CA&lt;br&gt;
    Pan/Azimuth: 57.22&lt;br&gt;
    &lt;a href="https://img.cdn.prod.alertwest.com/data/img/2600/2026/07/07/Sunol_Ridge_1783433635_4496.jpg"&gt;Latest Camera Image&lt;/a&gt;
    ]]&gt;
    </description><Point><coordinates>-121.922154,37.620219,0</coordinates></Point></Placemark><Placemark><name>Axis-NOAA</name><description>
    &lt;![CDATA[
    &lt;b&gt;Axis-NOAA&lt;/b&gt;&lt;br&gt;
    County: Washoe NV&lt;br&gt;
    Pan/Azimuth: 215.20&lt;br&gt;
    &lt;a href="https://img.cdn.prod.alertwest.com/data/img/12219/2026/07/07/NOAA_Reno_NV_1783433635_3109.jpg"&gt;Latest Camera Image&lt;/a&gt;
    ]]&gt;
    </description><Point><coordinates>-119.795860,39.568230,0</coordinates></Point></Placemark><Placemark><name>Axis-AtascaderoHwy412</name><description>
    &lt;![CDATA[
    &lt;b&gt;Axis-AtascaderoHwy412&lt;/b&gt;&lt;br&gt;
    County: SanLuisObispo CA&lt;br&gt;
    Pan/Azimuth: 54.96&lt;br&gt;
    &lt;a href="https://img.cdn.prod.alertwest.com/data/img/1794/2026/07/07/Atascadero_HWY41_2_1783433636_7497.jpg"&gt;Latest Camera Image&lt;/a&gt;
    ]]&gt;
    </description><Point><coordinates>-120.746254,35.454735,0</coordinates></Point></Placemark><Placemark><name>Axis-SugarloafRidge</name><description>
    &lt;![CDATA[
    &lt;b&gt;Axis-SugarloafRidge&lt;/b&gt;&lt;br&gt;
    County: Solano CA&lt;br&gt;
    Pan/Azimuth: 227.38&lt;br&gt;
    &lt;a href="https://img.cdn.prod.alertwest.com/data/img/2422/2026/07/07/Sugarloaf_Ridge_1783433542_4768.jpg"&gt;Latest Camera Image&lt;/a&gt;
    ]]&gt;
    </description><Point><coordinates>-122.216599,38.264198,0</coordinates></Point></Placemark><Placemark><name>Dyer_8_Thermal</name><description>
    &lt;![CDATA[
    &lt;b&gt;Dyer_8_Thermal&lt;/b&gt;&lt;br&gt;
    County:  CA&lt;br&gt;
    Pan/Azimuth: &lt;br&gt;
    &lt;a href=""&gt;Latest Camera Image&lt;/a&gt;
    ]]&gt;
    </description><Point><coordinates>-121.032791,40.239021,0</coordinates></Point></Placemark><Placemark><name>Axis-MtDanaher</name><description>
    &lt;![CDATA[
    &lt;b&gt;Axis-MtDanaher&lt;/b&gt;&lt;br&gt;
    County: El Dorado CA&lt;br&gt;
    Pan/Azimuth: 124.51&lt;br&gt;
    &lt;a href="https://img.cdn.prod.alertwest.com/data/img/2155/2026/07/07/Mt_Danaher_1783433632_9648.jpg"&gt;Latest Camera Image&lt;/a&gt;
    ]]&gt;
    </description><Point><coordinates>-120.667603,38.744701,0</coordinates></Point></Placemark><Placemark><name>Axis-AlderHill</name><description>
    &lt;![CDATA[
    &lt;b&gt;Axis-AlderHill&lt;/b&gt;&lt;br&gt;
    County: Nevada CA&lt;br&gt;
    Pan/Azimuth: 53.52&lt;br&gt;
    &lt;a href="https://img.cdn.prod.alertwest.com/data/img/1781/2026/07/07/Alder_Hill_1783433591_9265.jpg"&gt;Latest Camera Image&lt;/a&gt;
    ]]&gt;
    </description><Point><coordinates>-120.195396,39.352402,0</coordinates></Point></Placemark><Placemark><name>Axis-WildFrontier1</name><description>
    &lt;![CDATA[
    &lt;b&gt;Axis-WildFrontier1&lt;/b&gt;&lt;br&gt;
    County: DelNorte CA&lt;br&gt;
    Pan/Azimuth: 253.50&lt;br&gt;
    &lt;a href="https://img.cdn.prod.alertwest.com/data/img/2503/2026/07/07/Wild_Frontier_1_1783433632_7997.jpg"&gt;Latest Camera Image&lt;/a&gt;
    ]]&gt;
    </description><Point><coordinates>-123.876801,41.830299,0</coordinates></Point></Placemark><Placemark><name>Axis-TVHillMontecito2</name><description>
    &lt;![CDATA[
    &lt;b&gt;Axis-TVHillMontecito2&lt;/b&gt;&lt;br&gt;
    County: SantaBarbara CA&lt;br&gt;
    Pan/Azimuth: 2.36&lt;br&gt;
    &lt;a href="https://img.cdn.prod.alertwest.com/data/img/2748/2026/07/07/TV_Hill_2_1783433623_2941.jpg"&gt;Latest Camera Image&lt;/a&gt;
    ]]&gt;
    </description><Point><coordinates>-119.707666,34.410148,0</coordinates></Point></Placemark><Placemark><name>Axis-SkylineCollege</name><description>
    &lt;![CDATA[
    &lt;b&gt;Axis-SkylineCollege&lt;/b&gt;&lt;br&gt;
    County: SanMateo CA&lt;br&gt;
    Pan/Azimuth: 225.73&lt;br&gt;
    &lt;a href="https://img.cdn.prod.alertwest.com/data/img/2394/2026/07/07/Skyline_College_1783433628_5201.jpg"&gt;Latest Camera Image&lt;/a&gt;
    ]]&gt;
    </description><Point><coordinates>-122.469704,37.628502,0</coordinates></Point></Placemark><Placemark><name>Axis-Sanel2</name><description>
    &lt;![CDATA[
    &lt;b&gt;Axis-Sanel2&lt;/b&gt;&lt;br&gt;
    County: Mendocino CA&lt;br&gt;
    Pan/Azimuth: 77.76&lt;br&gt;
    &lt;a href="https://img.cdn.prod.alertwest.com/data/img/1716/2026/07/07/Mt_Sanel_2_1783433598_1453.jpg"&gt;Latest Camera Image&lt;/a&gt;
    ]]&gt;
    </description><Point><coordinates>-123.217400,38.948601,0</coordinates></Point></Placemark><Placemark><name>Axis-ShafferMtn</name><description>
    &lt;![CDATA[
    &lt;b&gt;Axis-ShafferMtn&lt;/b&gt;&lt;br&gt;
    County: Lassen CA&lt;br&gt;
    Pan/Azimuth: 163.49&lt;br&gt;
    &lt;a href="https://img.cdn.prod.alertwest.com/data/img/1719/2026/07/07/Shaffer_Mtn_1783433604_9295.jpg"&gt;Latest Camera Image&lt;/a&gt;
    ]]&gt;
    </description><Point><coordinates>-120.358002,40.446701,0</coordinates></Point></Placemark><Placemark><name>Axis-Loop2</name><description>
    &lt;![CDATA[
    &lt;b&gt;Axis-Loop2&lt;/b&gt;&lt;br&gt;
    County: LosAngeles CA&lt;br&gt;
    Pan/Azimuth: 298.55&lt;br&gt;
    &lt;a href="https://img.cdn.prod.alertwest.com/data/img/2057/2026/07/07/LACFD_Camp_Nine_Loop_2_1783433624_6723.jpg"&gt;Latest Camera Image&lt;/a&gt;
    ]]&gt;
    </description><Point><coordinates>-118.416656,34.353664,0</coordinates></Point></Placemark><Placemark><name>Axis-Rosamond</name><description>
    &lt;![CDATA[
    &lt;b&gt;Axis-Rosamond&lt;/b&gt;&lt;br&gt;
    County: Kern CA&lt;br&gt;
    Pan/Azimuth: 308.40&lt;br&gt;
    &lt;a href="https://img.cdn.prod.alertwest.com/data/img/2330/2026/07/07/Rosamond_1_1783433629_9135.jpg"&gt;Latest Camera Image&lt;/a&gt;
    ]]&gt;
    </description><Point><coordinates>-118.162430,34.880596,0</coordinates></Point></Placemark><Placemark><name>Axis-CaliforniaValley1</name><description>
    &lt;![CDATA[
    &lt;b&gt;Axis-CaliforniaValley1&lt;/b&gt;&lt;br&gt;
    County: SanLuisObispo CA&lt;br&gt;
    Pan/Azimuth: 276.99&lt;br&gt;
    &lt;a href="https://img.cdn.prod.alertwest.com/data/img/1870/2026/07/07/California_Valley_1_1783433634_6413.jpg"&gt;Latest Camera Image&lt;/a&gt;
    ]]&gt;
    </description><Point><coordinates>-119.989380,35.270920,0</coordinates></Point></Placemark><Placemark><name>Axis-GypsumSouth2</name><description>
    &lt;![CDATA[
    &lt;b&gt;Axis-GypsumSouth2&lt;/b&gt;&lt;br&gt;
    County: Orange CA&lt;br&gt;
    Pan/Azimuth: 158.63&lt;br&gt;
    &lt;a href="https://img.cdn.prod.alertwest.com/data/img/11092/2026/07/07/Gypsum_Canyon_South_2_1783433639_9639.jpg"&gt;Latest Camera Image&lt;/a&gt;
    ]]&gt;
    </description><Point><coordinates>-117.720049,33.856380,0</coordinates></Point></Placemark><Placemark><name>Axis-CarolDrive2</name><description>
    &lt;![CDATA[
    &lt;b&gt;Axis-CarolDrive2&lt;/b&gt;&lt;br&gt;
    County: SantaClara CA&lt;br&gt;
    Pan/Azimuth: 2.53&lt;br&gt;
    &lt;a href="https://img.cdn.prod.alertwest.com/data/img/1882/2026/07/07/Carol_Drive_Santa_Clara_2_1783433626_9665.jpg"&gt;Latest Camera Image&lt;/a&gt;
    ]]&gt;
    </description><Point><coordinates>-121.865799,37.287498,0</coordinates></Point></Placemark><Placemark><name>Axis-Escabroso2</name><description>
    &lt;![CDATA[
    &lt;b&gt;Axis-Escabroso2&lt;/b&gt;&lt;br&gt;
    County: SanLuisObispo CA&lt;br&gt;
    Pan/Azimuth: 16.90&lt;br&gt;
    &lt;a href="https://img.cdn.prod.alertwest.com/data/img/1962/2026/07/07/Escabroso_2_1783433638_6630.jpg"&gt;Latest Camera Image&lt;/a&gt;
    ]]&gt;
    </description><Point><coordinates>-120.730492,35.468498,0</coordinates></Point></Placemark><Placemark><name>Axis-BuenaVistaKern2</name><description>
    &lt;![CDATA[
    &lt;b&gt;Axis-BuenaVistaKern2&lt;/b&gt;&lt;br&gt;
    County: Kern CA&lt;br&gt;
    Pan/Azimuth: 71.27&lt;br&gt;
    &lt;a href="https://img.cdn.prod.alertwest.com/data/img/1866/2026/07/07/Buena_Vista_Kern_2_1783433627_1750.jpg"&gt;Latest Camera Image&lt;/a&gt;
    ]]&gt;
    </description><Point><coordinates>-119.485222,35.206783,0</coordinates></Point></Placemark><Placemark><name>Axis-SaintJohn2</name><description>
    &lt;![CDATA[
    &lt;b&gt;Axis-SaintJohn2&lt;/b&gt;&lt;br&gt;
    County: Glenn CA&lt;br&gt;
    Pan/Azimuth: 98.32&lt;br&gt;
    &lt;a href="https://img.cdn.prod.alertwest.com/data/img/1732/2026/07/07/Saint_John_Mtn_2_1783433624_7371.jpg"&gt;Latest Camera Image&lt;/a&gt;
    ]]&gt;
    </description><Point><coordinates>-122.693298,39.433952,0</coordinates></Point></Placemark><Placemark><name>Axis-Ducket2</name><description>
    &lt;![CDATA[
    &lt;b&gt;Axis-Ducket2&lt;/b&gt;&lt;br&gt;
    County: Shasta CA&lt;br&gt;
    Pan/Azimuth: 106.13&lt;br&gt;
    &lt;a href="https://img.cdn.prod.alertwest.com/data/img/1777/2026/07/07/Ducket_Peak_2_1783433637_2031.jpg"&gt;Latest Camera Image&lt;/a&gt;
    ]]&gt;
    </description><Point><coordinates>-122.640427,40.537281,0</coordinates></Point></Placemark><Placemark><name>Axis-OpalMtn</name><description>
    &lt;![CDATA[
    &lt;b&gt;Axis-OpalMtn&lt;/b&gt;&lt;br&gt;
    County: Clark NV&lt;br&gt;
    Pan/Azimuth: 154.04&lt;br&gt;
    &lt;a href="https://img.cdn.prod.alertwest.com/data/img/12220/2026/07/07/Opal_Mtn_1783433629_5680.jpg"&gt;Latest Camera Image&lt;/a&gt;
    ]]&gt;
    </description><Point><coordinates>-114.890400,35.701800,0</coordinates></Point></Placemark><Placemark><name>Axis-Hayfork2</name><description>
    &lt;![CDATA[
    &lt;b&gt;Axis-Hayfork2&lt;/b&gt;&lt;br&gt;
    County: Trinity CA&lt;br&gt;
    Pan/Azimuth: 205.55&lt;br&gt;
    &lt;a href="https://img.cdn.prod.alertwest.com/data/img/2010/2026/07/07/Hayfork_Divide_2_1783433632_2063.jpg"&gt;Latest Camera Image&lt;/a&gt;
    ]]&gt;
    </description><Point><coordinates>-123.084549,40.629166,0</coordinates></Point></Placemark><Placemark><name>Axis-BallardRidge1</name><description>
    &lt;![CDATA[
    &lt;b&gt;Axis-BallardRidge1&lt;/b&gt;&lt;br&gt;
    County: Modoc CA&lt;br&gt;
    Pan/Azimuth: 295.03&lt;br&gt;
    &lt;a href="https://img.cdn.prod.alertwest.com/data/img/2644/2026/07/07/Ballard_Ridge_1_1783433628_7206.jpg"&gt;Latest Camera Image&lt;/a&gt;
    ]]&gt;
    </description><Point><coordinates>-120.839000,41.363000,0</coordinates></Point></Placemark><Placemark><name>Axis-BenBolte2</name><description>
    &lt;![CDATA[
    &lt;b&gt;Axis-BenBolte2&lt;/b&gt;&lt;br&gt;
    County: eldorado CA&lt;br&gt;
    Pan/Azimuth: 31.32&lt;br&gt;
    &lt;a href="https://img.cdn.prod.alertwest.com/data/img/1824/2026/07/07/Ben_Bolte_2_1783433625_8659.jpg"&gt;Latest Camera Image&lt;/a&gt;
    ]]&gt;
    </description><Point><coordinates>-121.025063,38.588039,0</coordinates></Point></Placemark><Placemark><name>Axis-ShastaSkiPark</name><description>
    &lt;![CDATA[
    &lt;b&gt;Axis-ShastaSkiPark&lt;/b&gt;&lt;br&gt;
    County: Siskiyou CA&lt;br&gt;
    Pan/Azimuth: 197.72&lt;br&gt;
    &lt;a href="https://img.cdn.prod.alertwest.com/data/img/1682/2026/07/07/Shasta_Ski_Park_1783433598_5347.jpg"&gt;Latest Camera Image&lt;/a&gt;
    ]]&gt;
    </description><Point><coordinates>-122.194739,41.325050,0</coordinates></Point></Placemark><Placemark><name>Axis-MtRodoni2</name><description>
    &lt;![CDATA[
    &lt;b&gt;Axis-MtRodoni2&lt;/b&gt;&lt;br&gt;
    County: SantaClara CA&lt;br&gt;
    Pan/Azimuth: 128.55&lt;br&gt;
    &lt;a href="https://img.cdn.prod.alertwest.com/data/img/2189/2026/07/07/Mt_Rodoni_2_1783433636_4599.jpg"&gt;Latest Camera Image&lt;/a&gt;
    ]]&gt;
    </description><Point><coordinates>-122.032600,37.218102,0</coordinates></Point></Placemark><Placemark><name>Axis-GarcesHwy1</name><description>
    &lt;![CDATA[
    &lt;b&gt;Axis-GarcesHwy1&lt;/b&gt;&lt;br&gt;
    County: Kern CA&lt;br&gt;
    Pan/Azimuth: 188.99&lt;br&gt;
    &lt;a href="https://img.cdn.prod.alertwest.com/data/img/1981/2026/07/07/Garces_HWY_1_1783433638_6348.jpg"&gt;Latest Camera Image&lt;/a&gt;
    ]]&gt;
    </description><Point><coordinates>-119.052780,35.761665,0</coordinates></Point></Placemark><Placemark><name>Axis-MeadowBrook2</name><description>
    &lt;![CDATA[
    &lt;b&gt;Axis-MeadowBrook2&lt;/b&gt;&lt;br&gt;
    County: eldorado CA&lt;br&gt;
    Pan/Azimuth: 53.93&lt;br&gt;
    &lt;a href="https://img.cdn.prod.alertwest.com/data/img/2112/2026/07/07/Meadowbrook_2_1783433630_9367.jpg"&gt;Latest Camera Image&lt;/a&gt;
    ]]&gt;
    </description><Point><coordinates>-120.821899,38.859600,0</coordinates></Point></Placemark><Placemark><name>Axis-BaldMtnClearwater</name><description>
    &lt;![CDATA[
    &lt;b&gt;Axis-BaldMtnClearwater&lt;/b&gt;&lt;br&gt;
    County: Clearwater ID&lt;br&gt;
    Pan/Azimuth: 119.61&lt;br&gt;
    &lt;a href="https://img.cdn.prod.alertwest.com/data/img/8565/2026/07/07/Bald_Mtn_Clearwater_1783433625_4836.jpg"&gt;Latest Camera Image&lt;/a&gt;
    ]]&gt;
    </description><Point><coordinates>-115.899454,46.575372,0</coordinates></Point></Placemark><Placemark><name>Axis-PrefumoCanyon2</name><description>
    &lt;![CDATA[
    &lt;b&gt;Axis-PrefumoCanyon2&lt;/b&gt;&lt;br&gt;
    County: SanLuisObispo CA&lt;br&gt;
    Pan/Azimuth: 359.77&lt;br&gt;
    &lt;a href="https://img.cdn.prod.alertwest.com/data/img/2276/2026/07/07/Prefumo_Canyon_2_1783433634_3960.jpg"&gt;Latest Camera Image&lt;/a&gt;
    ]]&gt;
    </description><Point><coordinates>-120.762711,35.252960,0</coordinates></Point></Placemark><Placemark><name>Axis-HappyCamp2</name><description>
    &lt;![CDATA[
    &lt;b&gt;Axis-HappyCamp2&lt;/b&gt;&lt;br&gt;
    County: Modoc CA&lt;br&gt;
    Pan/Azimuth: 110.29&lt;br&gt;
    &lt;a href="https://img.cdn.prod.alertwest.com/data/img/2751/2026/07/07/Happy_Camp_2_1783433638_5918.jpg"&gt;Latest Camera Image&lt;/a&gt;
    ]]&gt;
    </description><Point><coordinates>-121.110687,41.417673,0</coordinates></Point></Placemark><Placemark><name>Axis-SodaRidge1</name><description>
    &lt;![CDATA[
    &lt;b&gt;Axis-SodaRidge1&lt;/b&gt;&lt;br&gt;
    County: Siskiyou CA&lt;br&gt;
    Pan/Azimuth: 69.35&lt;br&gt;
    &lt;a href="https://img.cdn.prod.alertwest.com/data/img/1729/2026/07/07/Soda_Ridge_1_1783433636_3113.jpg"&gt;Latest Camera Image&lt;/a&gt;
    ]]&gt;
    </description><Point><coordinates>-122.242111,41.224876,0</coordinates></Point></Placemark><Placemark><name>Axis-Pepperwood1</name><description>
    &lt;![CDATA[
    &lt;b&gt;Axis-Pepperwood1&lt;/b&gt;&lt;br&gt;
    County: Sonoma CA&lt;br&gt;
    Pan/Azimuth: &lt;br&gt;
    &lt;a href=""&gt;Latest Camera Image&lt;/a&gt;
    ]]&gt;
    </description><Point><coordinates>-122.703773,38.582798,0</coordinates></Point></Placemark><Placemark><name>Axis-Weed1</name><description>
    &lt;![CDATA[
    &lt;b&gt;Axis-Weed1&lt;/b&gt;&lt;br&gt;
    County: Siskiyou CA&lt;br&gt;
    Pan/Azimuth: 237.07&lt;br&gt;
    &lt;a href="https://img.cdn.prod.alertwest.com/data/img/1603/2026/07/07/Weed_1_1783433606_1858.jpg"&gt;Latest Camera Image&lt;/a&gt;
    ]]&gt;
    </description><Point><coordinates>-122.397469,41.435280,0</coordinates></Point></Placemark><Placemark><name>Axis-OregonMt2</name><description>
    &lt;![CDATA[
    &lt;b&gt;Axis-OregonMt2&lt;/b&gt;&lt;br&gt;
    County: Trinity CA&lt;br&gt;
    Pan/Azimuth: 277.79&lt;br&gt;
    &lt;a href="https://img.cdn.prod.alertwest.com/data/img/2228/2026/07/07/Oregon_Mtn_2_1783433627_2318.jpg"&gt;Latest Camera Image&lt;/a&gt;
    ]]&gt;
    </description><Point><coordinates>-122.980698,40.718582,0</coordinates></Point></Placemark><Placemark><name>Axis-Osborn1</name><description>
    &lt;![CDATA[
    &lt;b&gt;Axis-Osborn1&lt;/b&gt;&lt;br&gt;
    County: Sonoma CA&lt;br&gt;
    Pan/Azimuth: 208.51&lt;br&gt;
    &lt;a href="https://img.cdn.prod.alertwest.com/data/img/11022/2026/07/07/Osborn_Preserve_1_1783433613_5938.jpg"&gt;Latest Camera Image&lt;/a&gt;
    ]]&gt;
    </description><Point><coordinates>-122.591003,38.353607,0</coordinates></Point></Placemark><Placemark><name>Axis-BallRock</name><description>
    &lt;![CDATA[
    &lt;b&gt;Axis-BallRock&lt;/b&gt;&lt;br&gt;
    County: Tehama CA&lt;br&gt;
    Pan/Azimuth: 19.23&lt;br&gt;
    &lt;a href="https://img.cdn.prod.alertwest.com/data/img/2527/2026/07/07/Ball_Rock_1783433638_4280.jpg"&gt;Latest Camera Image&lt;/a&gt;
    ]]&gt;
    </description><Point><coordinates>-122.741249,39.967667,0</coordinates></Point></Placemark><Placemark><name>Axis-ChimneyPeak</name><description>
    &lt;![CDATA[
    &lt;b&gt;Axis-ChimneyPeak&lt;/b&gt;&lt;br&gt;
    County: Washoe NV&lt;br&gt;
    Pan/Azimuth: 329.70&lt;br&gt;
    &lt;a href="https://img.cdn.prod.alertwest.com/data/img/12188/2026/07/07/Chimney_Peak_1783433544_7521.jpg"&gt;Latest Camera Image&lt;/a&gt;
    ]]&gt;
    </description><Point><coordinates>-119.958244,39.460079,0</coordinates></Point></Placemark><Placemark><name>Axis-Hopland2</name><description>
    &lt;![CDATA[
    &lt;b&gt;Axis-Hopland2&lt;/b&gt;&lt;br&gt;
    County: Mendocino CA&lt;br&gt;
    Pan/Azimuth: 162.48&lt;br&gt;
    &lt;a href="https://img.cdn.prod.alertwest.com/data/img/1753/2026/07/07/Hopland_2_1783433635_7686.jpg"&gt;Latest Camera Image&lt;/a&gt;
    ]]&gt;
    </description><Point><coordinates>-123.083336,38.997311,0</coordinates></Point></Placemark><Placemark><name>Axis-DeerCreekHwy1</name><description>
    &lt;![CDATA[
    &lt;b&gt;Axis-DeerCreekHwy1&lt;/b&gt;&lt;br&gt;
    County: Butte CA&lt;br&gt;
    Pan/Azimuth: 262.27&lt;br&gt;
    &lt;a href="https://img.cdn.prod.alertwest.com/data/img/1758/2026/07/07/Deer_Creek_HWY_1_1783433634_2207.jpg"&gt;Latest Camera Image&lt;/a&gt;
    ]]&gt;
    </description><Point><coordinates>-121.759033,39.751225,0</coordinates></Point></Placemark><Placemark><name>Axis-PilotPeak</name><description>
    &lt;![CDATA[
    &lt;b&gt;Axis-PilotPeak&lt;/b&gt;&lt;br&gt;
    County: Mineral NV&lt;br&gt;
    Pan/Azimuth: 232.04&lt;br&gt;
    &lt;a href="https://img.cdn.prod.alertwest.com/data/img/12170/2026/07/07/Pilot_Peak_NV_1783433626_9807.jpg"&gt;Latest Camera Image&lt;/a&gt;
    ]]&gt;
    </description><Point><coordinates>-117.974220,38.342892,0</coordinates></Point></Placemark><Placemark><name>Axis-TVHill</name><description>
    &lt;![CDATA[
    &lt;b&gt;Axis-TVHill&lt;/b&gt;&lt;br&gt;
    County: Mineral NV&lt;br&gt;
    Pan/Azimuth: 179.46&lt;br&gt;
    &lt;a href="https://img.cdn.prod.alertwest.com/data/img/12233/2026/07/07/TV_Hill_1783433633_3672.jpg"&gt;Latest Camera Image&lt;/a&gt;
    ]]&gt;
    </description><Point><coordinates>-118.764999,38.457001,0</coordinates></Point></Placemark><Placemark><name>Axis-Cambria2</name><description>
    &lt;![CDATA[
    &lt;b&gt;Axis-Cambria2&lt;/b&gt;&lt;br&gt;
    County: SanLuisObispo CA&lt;br&gt;
    Pan/Azimuth: 115.17&lt;br&gt;
    &lt;a href="https://img.cdn.prod.alertwest.com/data/img/2657/2026/07/07/Cambria_2_1783433632_1944.jpg"&gt;Latest Camera Image&lt;/a&gt;
    ]]&gt;
    </description><Point><coordinates>-121.060225,35.527944,0</coordinates></Point></Placemark><Placemark><name>Axis-HawkeyeRanch</name><description>
    &lt;![CDATA[
    &lt;b&gt;Axis-HawkeyeRanch&lt;/b&gt;&lt;br&gt;
    County: Mendocino CA&lt;br&gt;
    Pan/Azimuth: 240.89&lt;br&gt;
    &lt;a href="https://img.cdn.prod.alertwest.com/data/img/2007/2026/07/07/Hawkeye_Ranch_1783433632_7931.jpg"&gt;Latest Camera Image&lt;/a&gt;
    ]]&gt;
    </description><Point><coordinates>-123.447830,39.086243,0</coordinates></Point></Placemark><Placemark><name>Axis-Babbitt</name><description>
    &lt;![CDATA[
    &lt;b&gt;Axis-Babbitt&lt;/b&gt;&lt;br&gt;
    County: Sierra CA&lt;br&gt;
    Pan/Azimuth: 317.71&lt;br&gt;
    &lt;a href="https://img.cdn.prod.alertwest.com/data/img/1799/2026/07/07/Babbitt_Peak_1783433628_3583.jpg"&gt;Latest Camera Image&lt;/a&gt;
    ]]&gt;
    </description><Point><coordinates>-120.105804,39.601974,0</coordinates></Point></Placemark><Placemark><name>Axis-RedwoodCity1</name><description>
    &lt;![CDATA[
    &lt;b&gt;Axis-RedwoodCity1&lt;/b&gt;&lt;br&gt;
    County: SanMateo CA&lt;br&gt;
    Pan/Azimuth: 214.47&lt;br&gt;
    &lt;a href="https://img.cdn.prod.alertwest.com/data/img/11097/2026/07/07/Redwood_City_1_1783433629_3154.jpg"&gt;Latest Camera Image&lt;/a&gt;
    ]]&gt;
    </description><Point><coordinates>-122.230957,37.488216,0</coordinates></Point></Placemark><Placemark><name>Axis-JonesRidge</name><description>
    &lt;![CDATA[
    &lt;b&gt;Axis-JonesRidge&lt;/b&gt;&lt;br&gt;
    County: Nevada CA&lt;br&gt;
    Pan/Azimuth: 252.99&lt;br&gt;
    &lt;a href="https://img.cdn.prod.alertwest.com/data/img/1671/2026/07/07/Jones_Ridge_1783433617_6131.jpg"&gt;Latest Camera Image&lt;/a&gt;
    ]]&gt;
    </description><Point><coordinates>-120.937103,39.220203,0</coordinates></Point></Placemark><Placemark><name>Axis-RiversideRed1</name><description>
    &lt;![CDATA[
    &lt;b&gt;Axis-RiversideRed1&lt;/b&gt;&lt;br&gt;
    County: Riverside CA&lt;br&gt;
    Pan/Azimuth: 331.00&lt;br&gt;
    &lt;a href="https://img.cdn.prod.alertwest.com/data/img/2756/2026/07/07/Red_Mountain_Riverside_Co_North_1783433625_4541.jpg"&gt;Latest Camera Image&lt;/a&gt;
    ]]&gt;
    </description><Point><coordinates>-116.848000,33.629776,0</coordinates></Point></Placemark><Placemark><name>Axis-RockyRidge1</name><description>
    &lt;![CDATA[
    &lt;b&gt;Axis-RockyRidge1&lt;/b&gt;&lt;br&gt;
    County: ContraCosta CA&lt;br&gt;
    Pan/Azimuth: 81.95&lt;br&gt;
    &lt;a href="https://img.cdn.prod.alertwest.com/data/img/2329/2026/07/07/Rocky_Ridge_1_1783433629_6673.jpg"&gt;Latest Camera Image&lt;/a&gt;
    ]]&gt;
    </description><Point><coordinates>-122.062332,37.815887,0</coordinates></Point></Placemark><Placemark><name>Axis-Pike</name><description>
    &lt;![CDATA[
    &lt;b&gt;Axis-Pike&lt;/b&gt;&lt;br&gt;
    County: Yuba CA&lt;br&gt;
    Pan/Azimuth: 166.51&lt;br&gt;
    &lt;a href="https://img.cdn.prod.alertwest.com/data/img/2081/2026/07/07/Lohman_Ridge_Pike_1783433624_8978.jpg"&gt;Latest Camera Image&lt;/a&gt;
    ]]&gt;
    </description><Point><coordinates>-121.037498,39.424278,0</coordinates></Point></Placemark><Placemark><name>Axis-BrionesTabletop</name><description>
    &lt;![CDATA[
    &lt;b&gt;Axis-BrionesTabletop&lt;/b&gt;&lt;br&gt;
    County: ContraCosta CA&lt;br&gt;
    Pan/Azimuth: 41.57&lt;br&gt;
    &lt;a href="https://img.cdn.prod.alertwest.com/data/img/1855/2026/07/07/Briones_Tabletop_1783433634_7487.jpg"&gt;Latest Camera Image&lt;/a&gt;
    ]]&gt;
    </description><Point><coordinates>-122.123383,37.932339,0</coordinates></Point></Placemark><Placemark><name>Axis-Hauser1</name><description>
    &lt;![CDATA[
    &lt;b&gt;Axis-Hauser1&lt;/b&gt;&lt;br&gt;
    County: LosAngeles CA&lt;br&gt;
    Pan/Azimuth: 187.24&lt;br&gt;
    &lt;a href="https://img.cdn.prod.alertwest.com/data/img/2383/2026/07/07/Sierra_Pelona_1_1783433629_3224.jpg"&gt;Latest Camera Image&lt;/a&gt;
    ]]&gt;
    </description><Point><coordinates>-118.213120,34.547199,0</coordinates></Point></Placemark><Placemark><name>Axis-Crestline1</name><description>
    &lt;![CDATA[
    &lt;b&gt;Axis-Crestline1&lt;/b&gt;&lt;br&gt;
    County: SanBernardino CA&lt;br&gt;
    Pan/Azimuth: 33.53&lt;br&gt;
    &lt;a href="https://img.cdn.prod.alertwest.com/data/img/1911/2026/07/07/Crestline_Ridge_1_1783433626_1329.jpg"&gt;Latest Camera Image&lt;/a&gt;
    ]]&gt;
    </description><Point><coordinates>-117.314201,34.236500,0</coordinates></Point></Placemark><Placemark><name>Axis-NostalgiaBonsall2</name><description>
    &lt;![CDATA[
    &lt;b&gt;Axis-NostalgiaBonsall2&lt;/b&gt;&lt;br&gt;
    County: SanDiego CA&lt;br&gt;
    Pan/Azimuth: 179.42&lt;br&gt;
    &lt;a href="https://img.cdn.prod.alertwest.com/data/img/2212/2026/07/07/Nostalgia_Bonsall_2_1783433638_3786.jpg"&gt;Latest Camera Image&lt;/a&gt;
    ]]&gt;
    </description><Point><coordinates>-117.153915,33.305794,0</coordinates></Point></Placemark><Placemark><name>Axis-DyerMtn1</name><description>
    &lt;![CDATA[
    &lt;b&gt;Axis-DyerMtn1&lt;/b&gt;&lt;br&gt;
    County: Lassen CA&lt;br&gt;
    Pan/Azimuth: 91.97&lt;br&gt;
    &lt;a href="https://img.cdn.prod.alertwest.com/data/img/1642/2026/07/07/Dyer_Mtn_1_1783433635_6388.jpg"&gt;Latest Camera Image&lt;/a&gt;
    ]]&gt;
    </description><Point><coordinates>-121.032700,40.238998,0</coordinates></Point></Placemark><Placemark><name>Axis-DoeMillRd</name><description>
    &lt;![CDATA[
    &lt;b&gt;Axis-DoeMillRd&lt;/b&gt;&lt;br&gt;
    County: Butte CA&lt;br&gt;
    Pan/Azimuth: 71.92&lt;br&gt;
    &lt;a href="https://img.cdn.prod.alertwest.com/data/img/1638/2026/07/07/Doe_Mill_Road_1783433600_9242.jpg"&gt;Latest Camera Image&lt;/a&gt;
    ]]&gt;
    </description><Point><coordinates>-121.668144,39.815426,0</coordinates></Point></Placemark><Placemark><name>Axis-BoucherWest</name><description>
    &lt;![CDATA[
    &lt;b&gt;Axis-BoucherWest&lt;/b&gt;&lt;br&gt;
    County: SanDiego CA&lt;br&gt;
    Pan/Azimuth: 281.62&lt;br&gt;
    &lt;a href="https://img.cdn.prod.alertwest.com/data/img/1846/2026/07/07/Boucher_Hill_West_1783433636_4404.jpg"&gt;Latest Camera Image&lt;/a&gt;
    ]]&gt;
    </description><Point><coordinates>-116.919800,33.334606,0</coordinates></Point></Placemark><Placemark><name>Axis-HallsRidge2</name><description>
    &lt;![CDATA[
    &lt;b&gt;Axis-HallsRidge2&lt;/b&gt;&lt;br&gt;
    County: Monterey CA&lt;br&gt;
    Pan/Azimuth: 59.42&lt;br&gt;
    &lt;a href="https://img.cdn.prod.alertwest.com/data/img/2687/2026/07/07/Halls_Ridge_2_1783433631_1553.jpg"&gt;Latest Camera Image&lt;/a&gt;
    ]]&gt;
    </description><Point><coordinates>-121.825806,36.457556,0</coordinates></Point></Placemark><Placemark><name>Axis-Woodson</name><description>
    &lt;![CDATA[
    &lt;b&gt;Axis-Woodson&lt;/b&gt;&lt;br&gt;
    County: SanDiego CA&lt;br&gt;
    Pan/Azimuth: 96.93&lt;br&gt;
    &lt;a href="https://img.cdn.prod.alertwest.com/data/img/2197/2026/07/07/Mt_Woodson_1783433611_4998.jpg"&gt;Latest Camera Image&lt;/a&gt;
    ]]&gt;
    </description><Point><coordinates>-116.970917,33.008732,0</coordinates></Point></Placemark><Placemark><name>Grass_Mtn_2</name><description>
    &lt;![CDATA[
    &lt;b&gt;Grass_Mtn_2&lt;/b&gt;&lt;br&gt;
    County: SantaBarbara CA&lt;br&gt;
    Pan/Azimuth: 239.66&lt;br&gt;
    &lt;a href="https://img.cdn.prod.alertwest.com/data/img/1994/2025/02/05/Grass_Mtn_2_1738782507_6801.jpg"&gt;Latest Camera Image&lt;/a&gt;
    ]]&gt;
    </description><Point><coordinates>-120.065277,34.759689,0</coordinates></Point></Placemark><Placemark><name>Axis-Felicita</name><description>
    &lt;![CDATA[
    &lt;b&gt;Axis-Felicita&lt;/b&gt;&lt;br&gt;
    County: SanDiego CA&lt;br&gt;
    Pan/Azimuth: 120.22&lt;br&gt;
    &lt;a href="https://img.cdn.prod.alertwest.com/data/img/1969/2026/07/07/Felicita_San_Diego_1_1783433607_3271.jpg"&gt;Latest Camera Image&lt;/a&gt;
    ]]&gt;
    </description><Point><coordinates>-117.094604,33.083218,0</coordinates></Point></Placemark><Placemark><name>Axis-StHelenaNorth</name><description>
    &lt;![CDATA[
    &lt;b&gt;Axis-StHelenaNorth&lt;/b&gt;&lt;br&gt;
    County: Sonoma CA&lt;br&gt;
    Pan/Azimuth: 293.34&lt;br&gt;
    &lt;a href="https://img.cdn.prod.alertwest.com/data/img/2412/2026/07/07/St_Helena_North_1783433631_1619.jpg"&gt;Latest Camera Image&lt;/a&gt;
    ]]&gt;
    </description><Point><coordinates>-122.633400,38.669102,0</coordinates></Point></Placemark><Placemark><name>Axis-SawmillKern2</name><description>
    &lt;![CDATA[
    &lt;b&gt;Axis-SawmillKern2&lt;/b&gt;&lt;br&gt;
    County: Kern CA&lt;br&gt;
    Pan/Azimuth: 7.23&lt;br&gt;
    &lt;a href="https://img.cdn.prod.alertwest.com/data/img/2372/2026/07/07/Sawmill_Kern_2_1783433621_3012.jpg"&gt;Latest Camera Image&lt;/a&gt;
    ]]&gt;
    </description><Point><coordinates>-119.140663,34.839722,0</coordinates></Point></Placemark><Placemark><name>Axis-RainbowLake</name><description>
    &lt;![CDATA[
    &lt;b&gt;Axis-RainbowLake&lt;/b&gt;&lt;br&gt;
    County: Shasta CA&lt;br&gt;
    Pan/Azimuth: 269.44&lt;br&gt;
    &lt;a href="https://img.cdn.prod.alertwest.com/data/img/2287/2026/07/07/Rainbow_Lake_1783433637_9028.jpg"&gt;Latest Camera Image&lt;/a&gt;
    ]]&gt;
    </description><Point><coordinates>-122.689697,40.497200,0</coordinates></Point></Placemark><Placemark><name>Axis-BigValley1</name><description>
    &lt;![CDATA[
    &lt;b&gt;Axis-BigValley1&lt;/b&gt;&lt;br&gt;
    County: Lassen CA&lt;br&gt;
    Pan/Azimuth: 254.37&lt;br&gt;
    &lt;a href="https://img.cdn.prod.alertwest.com/data/img/2589/2026/07/07/Big_Valley_1_1783433612_4989.jpg"&gt;Latest Camera Image&lt;/a&gt;
    ]]&gt;
    </description><Point><coordinates>-121.223003,41.072064,0</coordinates></Point></Placemark><Placemark><name>Axis-SodaRidge2</name><description>
    &lt;![CDATA[
    &lt;b&gt;Axis-SodaRidge2&lt;/b&gt;&lt;br&gt;
    County: Siskiyou CA&lt;br&gt;
    Pan/Azimuth: 355.47&lt;br&gt;
    &lt;a href="https://img.cdn.prod.alertwest.com/data/img/1730/2026/07/07/Soda_Ridge_2_1783433635_2890.jpg"&gt;Latest Camera Image&lt;/a&gt;
    ]]&gt;
    </description><Point><coordinates>-122.242111,41.224876,0</coordinates></Point></Placemark><Placemark><name>Axis-Paynes</name><description>
    &lt;![CDATA[
    &lt;b&gt;Axis-Paynes&lt;/b&gt;&lt;br&gt;
    County: Yuba CA&lt;br&gt;
    Pan/Azimuth: 38.55&lt;br&gt;
    &lt;a href="https://img.cdn.prod.alertwest.com/data/img/1695/2026/07/07/Paynes_Peak_1783433632_1575.jpg"&gt;Latest Camera Image&lt;/a&gt;
    ]]&gt;
    </description><Point><coordinates>-121.380676,39.313400,0</coordinates></Point></Placemark><Placemark><name>Axis-Homewood2</name><description>
    &lt;![CDATA[
    &lt;b&gt;Axis-Homewood2&lt;/b&gt;&lt;br&gt;
    County: Placer CA&lt;br&gt;
    Pan/Azimuth: 71.65&lt;br&gt;
    &lt;a href="https://img.cdn.prod.alertwest.com/data/img/2030/2026/05/06/Homewood_Ski_Area_2_1778094538_2997.jpg"&gt;Latest Camera Image&lt;/a&gt;
    ]]&gt;
    </description><Point><coordinates>-120.174530,39.082802,0</coordinates></Point></Placemark><Placemark><name>Axis-Pitts1</name><description>
    &lt;![CDATA[
    &lt;b&gt;Axis-Pitts1&lt;/b&gt;&lt;br&gt;
    County: SanLuisObispo CA&lt;br&gt;
    Pan/Azimuth: 41.27&lt;br&gt;
    &lt;a href="https://img.cdn.prod.alertwest.com/data/img/2694/2026/07/07/Pitts_1783433627_4765.jpg"&gt;Latest Camera Image&lt;/a&gt;
    ]]&gt;
    </description><Point><coordinates>-120.775860,35.678220,0</coordinates></Point></Placemark><Placemark><name>Axis-GypsumCanyon2</name><description>
    &lt;![CDATA[
    &lt;b&gt;Axis-GypsumCanyon2&lt;/b&gt;&lt;br&gt;
    County: Orange CA&lt;br&gt;
    Pan/Azimuth: 292.28&lt;br&gt;
    &lt;a href="https://img.cdn.prod.alertwest.com/data/img/2004/2026/07/07/Gypsum_Canyon_2_1783433639_3023.jpg"&gt;Latest Camera Image&lt;/a&gt;
    ]]&gt;
    </description><Point><coordinates>-117.745430,33.893887,0</coordinates></Point></Placemark><Placemark><name>Axis-RedMtnGlenn1</name><description>
    &lt;![CDATA[
    &lt;b&gt;Axis-RedMtnGlenn1&lt;/b&gt;&lt;br&gt;
    County: Glenn CA&lt;br&gt;
    Pan/Azimuth: 360.58&lt;br&gt;
    &lt;a href="https://img.cdn.prod.alertwest.com/data/img/2306/2026/07/07/Red_Mtn_Glenn_1_1783433624_7703.jpg"&gt;Latest Camera Image&lt;/a&gt;
    ]]&gt;
    </description><Point><coordinates>-122.609604,39.742500,0</coordinates></Point></Placemark><Placemark><name>Axis-LikelyMtn1</name><description>
    &lt;![CDATA[
    &lt;b&gt;Axis-LikelyMtn1&lt;/b&gt;&lt;br&gt;
    County: Lassen CA&lt;br&gt;
    Pan/Azimuth: 184.10&lt;br&gt;
    &lt;a href="https://img.cdn.prod.alertwest.com/data/img/2647/2026/07/07/Likely_Mtn_1_1783433635_8752.jpg"&gt;Latest Camera Image&lt;/a&gt;
    ]]&gt;
    </description><Point><coordinates>-120.563569,41.155165,0</coordinates></Point></Placemark><Placemark><name>Axis-PaloEscrito2</name><description>
    &lt;![CDATA[
    &lt;b&gt;Axis-PaloEscrito2&lt;/b&gt;&lt;br&gt;
    County: Monterey CA&lt;br&gt;
    Pan/Azimuth: 103.87&lt;br&gt;
    &lt;a href="https://img.cdn.prod.alertwest.com/data/img/2238/2026/07/07/Palo_Escrito_2_1783433628_8836.jpg"&gt;Latest Camera Image&lt;/a&gt;
    ]]&gt;
    </description><Point><coordinates>-121.491386,36.406387,0</coordinates></Point></Placemark><Placemark><name>Axis-Hobron</name><description>
    &lt;![CDATA[
    &lt;b&gt;Axis-Hobron&lt;/b&gt;&lt;br&gt;
    County: Tuolumne CA&lt;br&gt;
    Pan/Azimuth: &lt;br&gt;
    &lt;a href=""&gt;Latest Camera Image&lt;/a&gt;
    ]]&gt;
    </description><Point><coordinates>-120.113297,37.793900,0</coordinates></Point></Placemark><Placemark><name>Axis-RedCorral2</name><description>
    &lt;![CDATA[
    &lt;b&gt;Axis-RedCorral2&lt;/b&gt;&lt;br&gt;
    County: Amador CA&lt;br&gt;
    Pan/Azimuth: 52.83&lt;br&gt;
    &lt;a href="https://img.cdn.prod.alertwest.com/data/img/2301/2026/07/07/Red_Corral_Rd_2_1783433636_8332.jpg"&gt;Latest Camera Image&lt;/a&gt;
    ]]&gt;
    </description><Point><coordinates>-120.595154,38.412952,0</coordinates></Point></Placemark><Placemark><name>Axis-Shoeinhorse1</name><description>
    &lt;![CDATA[
    &lt;b&gt;Axis-Shoeinhorse1&lt;/b&gt;&lt;br&gt;
    County: Shasta CA&lt;br&gt;
    Pan/Azimuth: 314.08&lt;br&gt;
    &lt;a href="https://img.cdn.prod.alertwest.com/data/img/2703/2026/07/07/Shoeinhorse_Mtn_1_1783433637_8675.jpg"&gt;Latest Camera Image&lt;/a&gt;
    ]]&gt;
    </description><Point><coordinates>-122.073138,41.068342,0</coordinates></Point></Placemark><Placemark><name>Axis-SanLuisReservoir2</name><description>
    &lt;![CDATA[
    &lt;b&gt;Axis-SanLuisReservoir2&lt;/b&gt;&lt;br&gt;
    County: Merced CA&lt;br&gt;
    Pan/Azimuth: 147.70&lt;br&gt;
    &lt;a href="https://img.cdn.prod.alertwest.com/data/img/2353/2026/07/07/San_Luis_Reservoir_2_1783433593_7813.jpg"&gt;Latest Camera Image&lt;/a&gt;
    ]]&gt;
    </description><Point><coordinates>-121.086288,37.019024,0</coordinates></Point></Placemark><Placemark><name>Axis-JasperRidge</name><description>
    &lt;![CDATA[
    &lt;b&gt;Axis-JasperRidge&lt;/b&gt;&lt;br&gt;
    County: SanMateo CA&lt;br&gt;
    Pan/Azimuth: 186.79&lt;br&gt;
    &lt;a href="https://img.cdn.prod.alertwest.com/data/img/2039/2026/07/07/Jasper_Ridge_Bio_Presv_1783433608_4323.jpg"&gt;Latest Camera Image&lt;/a&gt;
    ]]&gt;
    </description><Point><coordinates>-122.239601,37.405281,0</coordinates></Point></Placemark><Placemark><name>Axis-WilliamsHill1</name><description>
    &lt;![CDATA[
    &lt;b&gt;Axis-WilliamsHill1&lt;/b&gt;&lt;br&gt;
    County: Monterey CA&lt;br&gt;
    Pan/Azimuth: 338.57&lt;br&gt;
    &lt;a href="https://img.cdn.prod.alertwest.com/data/img/2509/2026/07/07/Williams_Hill_1_1783433627_8025.jpg"&gt;Latest Camera Image&lt;/a&gt;
    ]]&gt;
    </description><Point><coordinates>-121.001999,35.951000,0</coordinates></Point></Placemark><Placemark><name>Axis-CuyamacaPeakSouth</name><description>
    &lt;![CDATA[
    &lt;b&gt;Axis-CuyamacaPeakSouth&lt;/b&gt;&lt;br&gt;
    County: SanDiego CA&lt;br&gt;
    Pan/Azimuth: 204.62&lt;br&gt;
    &lt;a href="https://img.cdn.prod.alertwest.com/data/img/1926/2026/07/07/Cuyamaca_Peak_South_1783433630_1170.jpg"&gt;Latest Camera Image&lt;/a&gt;
    ]]&gt;
    </description><Point><coordinates>-116.606575,32.946434,0</coordinates></Point></Placemark><Placemark><name>Axis-Rasnow2</name><description>
    &lt;![CDATA[
    &lt;b&gt;Axis-Rasnow2&lt;/b&gt;&lt;br&gt;
    County: Ventura CA&lt;br&gt;
    Pan/Azimuth: 190.56&lt;br&gt;
    &lt;a href="https://img.cdn.prod.alertwest.com/data/img/2297/2026/07/07/Rasnow_Peak_2_1783433602_6663.jpg"&gt;Latest Camera Image&lt;/a&gt;
    ]]&gt;
    </description><Point><coordinates>-118.908997,34.165298,0</coordinates></Point></Placemark><Placemark><name>Axis-SnowPeak2</name><description>
    &lt;![CDATA[
    &lt;b&gt;Axis-SnowPeak2&lt;/b&gt;&lt;br&gt;
    County: SanBernardino CA&lt;br&gt;
    Pan/Azimuth: 343.37&lt;br&gt;
    &lt;a href="https://img.cdn.prod.alertwest.com/data/img/2400/2026/07/07/Snow_Peak_2_1783433636_1998.jpg"&gt;Latest Camera Image&lt;/a&gt;
    ]]&gt;
    </description><Point><coordinates>-116.814400,34.037701,0</coordinates></Point></Placemark><Placemark><name>Axis-AlabamaHills1</name><description>
    &lt;![CDATA[
    &lt;b&gt;Axis-AlabamaHills1&lt;/b&gt;&lt;br&gt;
    County: Inyo CA&lt;br&gt;
    Pan/Azimuth: 40.44&lt;br&gt;
    &lt;a href="https://img.cdn.prod.alertwest.com/data/img/1779/2026/07/07/Alabama_Hills_1_1783433628_9329.jpg"&gt;Latest Camera Image&lt;/a&gt;
    ]]&gt;
    </description><Point><coordinates>-118.089951,36.565666,0</coordinates></Point></Placemark><Placemark><name>Axis-BerryessaEast</name><description>
    &lt;![CDATA[
    &lt;b&gt;Axis-BerryessaEast&lt;/b&gt;&lt;br&gt;
    County: Yolo CA&lt;br&gt;
    Pan/Azimuth: 1.79&lt;br&gt;
    &lt;a href="https://img.cdn.prod.alertwest.com/data/img/2066/2026/07/07/Lake_Berryessa_East_1783433543_1996.jpg"&gt;Latest Camera Image&lt;/a&gt;
    ]]&gt;
    </description><Point><coordinates>-122.189301,38.662998,0</coordinates></Point></Placemark><Placemark><name>Axis-Sites1</name><description>
    &lt;![CDATA[
    &lt;b&gt;Axis-Sites1&lt;/b&gt;&lt;br&gt;
    County: Colusa CA&lt;br&gt;
    Pan/Azimuth: 290.06&lt;br&gt;
    &lt;a href="https://img.cdn.prod.alertwest.com/data/img/1725/2026/07/07/Sites_1_1783433600_8265.jpg"&gt;Latest Camera Image&lt;/a&gt;
    ]]&gt;
    </description><Point><coordinates>-122.334740,39.287891,0</coordinates></Point></Placemark><Placemark><name>Axis-PortalRidge1</name><description>
    &lt;![CDATA[
    &lt;b&gt;Axis-PortalRidge1&lt;/b&gt;&lt;br&gt;
    County: LosAngeles CA&lt;br&gt;
    Pan/Azimuth: 223.92&lt;br&gt;
    &lt;a href="https://img.cdn.prod.alertwest.com/data/img/2269/2026/07/07/Portal_Ridge_1_1783433601_6325.jpg"&gt;Latest Camera Image&lt;/a&gt;
    ]]&gt;
    </description><Point><coordinates>-118.432617,34.679214,0</coordinates></Point></Placemark><Placemark><name>Axis-Willet1</name><description>
    &lt;![CDATA[
    &lt;b&gt;Axis-Willet1&lt;/b&gt;&lt;br&gt;
    County: Ventura CA&lt;br&gt;
    Pan/Azimuth: 0.11&lt;br&gt;
    &lt;a href="https://img.cdn.prod.alertwest.com/data/img/2424/2026/07/07/Sulphur_Mtn_Willet_1_1783433635_7326.jpg"&gt;Latest Camera Image&lt;/a&gt;
    ]]&gt;
    </description><Point><coordinates>-119.187973,34.412621,0</coordinates></Point></Placemark><Placemark><name>Axis-BoxSpringsEast1</name><description>
    &lt;![CDATA[
    &lt;b&gt;Axis-BoxSpringsEast1&lt;/b&gt;&lt;br&gt;
    County: Riverside CA&lt;br&gt;
    Pan/Azimuth: 319.96&lt;br&gt;
    &lt;a href="https://img.cdn.prod.alertwest.com/data/img/1849/2026/07/07/Box_Springs_Mtn_East_1_1783433624_5168.jpg"&gt;Latest Camera Image&lt;/a&gt;
    ]]&gt;
    </description><Point><coordinates>-117.288879,33.966240,0</coordinates></Point></Placemark><Placemark><name>Axis-ObsTehachapi1</name><description>
    &lt;![CDATA[
    &lt;b&gt;Axis-ObsTehachapi1&lt;/b&gt;&lt;br&gt;
    County: Kern CA&lt;br&gt;
    Pan/Azimuth: 355.01&lt;br&gt;
    &lt;a href="https://img.cdn.prod.alertwest.com/data/img/2441/2026/07/07/Tehachapi_Obsv_1_1783433624_3422.jpg"&gt;Latest Camera Image&lt;/a&gt;
    ]]&gt;
    </description><Point><coordinates>-118.461143,35.045982,0</coordinates></Point></Placemark><Placemark><name>Axis-WestPeak1</name><description>
    &lt;![CDATA[
    &lt;b&gt;Axis-WestPeak1&lt;/b&gt;&lt;br&gt;
    County: Shasta CA&lt;br&gt;
    Pan/Azimuth: 239.71&lt;br&gt;
    &lt;a href="https://img.cdn.prod.alertwest.com/data/img/2490/2026/07/07/West_Peak_1_1783433593_8512.jpg"&gt;Latest Camera Image&lt;/a&gt;
    ]]&gt;
    </description><Point><coordinates>-122.505096,40.537701,0</coordinates></Point></Placemark><Placemark><name>Axis-MtZion1</name><description>
    &lt;![CDATA[
    &lt;b&gt;Axis-MtZion1&lt;/b&gt;&lt;br&gt;
    County: Amador CA&lt;br&gt;
    Pan/Azimuth: 311.42&lt;br&gt;
    &lt;a href="https://img.cdn.prod.alertwest.com/data/img/2198/2026/07/07/Mt_Zion_1_1783433588_6101.jpg"&gt;Latest Camera Image&lt;/a&gt;
    ]]&gt;
    </description><Point><coordinates>-120.652336,38.389950,0</coordinates></Point></Placemark><Placemark><name>Axis-SanLuisReservoir1</name><description>
    &lt;![CDATA[
    &lt;b&gt;Axis-SanLuisReservoir1&lt;/b&gt;&lt;br&gt;
    County: Merced CA&lt;br&gt;
    Pan/Azimuth: 237.99&lt;br&gt;
    &lt;a href="https://img.cdn.prod.alertwest.com/data/img/2352/2026/07/07/San_Luis_Reservoir_1_1783433625_2764.jpg"&gt;Latest Camera Image&lt;/a&gt;
    ]]&gt;
    </description><Point><coordinates>-121.086288,37.019024,0</coordinates></Point></Placemark><Placemark><name>Axis-ElkCreek1</name><description>
    &lt;![CDATA[
    &lt;b&gt;Axis-ElkCreek1&lt;/b&gt;&lt;br&gt;
    County: Glenn CA&lt;br&gt;
    Pan/Azimuth: 267.62&lt;br&gt;
    &lt;a href="https://img.cdn.prod.alertwest.com/data/img/1645/2026/07/07/Elk_Creek_1_1783433630_5440.jpg"&gt;Latest Camera Image&lt;/a&gt;
    ]]&gt;
    </description><Point><coordinates>-122.562767,39.515667,0</coordinates></Point></Placemark><Placemark><name>Axis-Parkfield1</name><description>
    &lt;![CDATA[
    &lt;b&gt;Axis-Parkfield1&lt;/b&gt;&lt;br&gt;
    County: Monterey CA&lt;br&gt;
    Pan/Azimuth: 339.08&lt;br&gt;
    &lt;a href="https://img.cdn.prod.alertwest.com/data/img/2239/2026/07/07/Parkfield_1_1783433633_3526.jpg"&gt;Latest Camera Image&lt;/a&gt;
    ]]&gt;
    </description><Point><coordinates>-120.380814,35.927635,0</coordinates></Point></Placemark><Placemark><name>Axis-HallsRidge1</name><description>
    &lt;![CDATA[
    &lt;b&gt;Axis-HallsRidge1&lt;/b&gt;&lt;br&gt;
    County: Monterey CA&lt;br&gt;
    Pan/Azimuth: 237.04&lt;br&gt;
    &lt;a href="https://img.cdn.prod.alertwest.com/data/img/2686/2026/07/07/Halls_Ridge_1_1783433632_3595.jpg"&gt;Latest Camera Image&lt;/a&gt;
    ]]&gt;
    </description><Point><coordinates>-121.825806,36.457556,0</coordinates></Point></Placemark><Placemark><name>Axis-BaldMtnNapa</name><description>
    &lt;![CDATA[
    &lt;b&gt;Axis-BaldMtnNapa&lt;/b&gt;&lt;br&gt;
    County: Napa CA&lt;br&gt;
    Pan/Azimuth: 113.79&lt;br&gt;
    &lt;a href="https://img.cdn.prod.alertwest.com/data/img/1804/2026/07/07/Bald_Mtn_Napa_1783433636_6622.jpg"&gt;Latest Camera Image&lt;/a&gt;
    ]]&gt;
    </description><Point><coordinates>-122.490303,38.426300,0</coordinates></Point></Placemark><Placemark><name>Axis-Watsonville1</name><description>
    &lt;![CDATA[
    &lt;b&gt;Axis-Watsonville1&lt;/b&gt;&lt;br&gt;
    County: SantaCruz CA&lt;br&gt;
    Pan/Azimuth: 19.98&lt;br&gt;
    &lt;a href="https://img.cdn.prod.alertwest.com/data/img/4713/2026/07/07/Watsonville_1_1783433629_4828.jpg"&gt;Latest Camera Image&lt;/a&gt;
    ]]&gt;
    </description><Point><coordinates>-121.755682,36.908399,0</coordinates></Point></Placemark><Placemark><name>Axis-SuisunValley</name><description>
    &lt;![CDATA[
    &lt;b&gt;Axis-SuisunValley&lt;/b&gt;&lt;br&gt;
    County: Solano CA&lt;br&gt;
    Pan/Azimuth: 321.28&lt;br&gt;
    &lt;a href="https://img.cdn.prod.alertwest.com/data/img/2423/2026/07/07/Suisun_Valley_1783433633_5274.jpg"&gt;Latest Camera Image&lt;/a&gt;
    ]]&gt;
    </description><Point><coordinates>-122.092102,38.263302,0</coordinates></Point></Placemark><Placemark><name>Axis-IndianRidge2</name><description>
    &lt;![CDATA[
    &lt;b&gt;Axis-IndianRidge2&lt;/b&gt;&lt;br&gt;
    County: Plumas CA&lt;br&gt;
    Pan/Azimuth: 333.07&lt;br&gt;
    &lt;a href="https://img.cdn.prod.alertwest.com/data/img/2531/2026/07/07/Indian_Ridge_2_1783433632_9827.jpg"&gt;Latest Camera Image&lt;/a&gt;
    ]]&gt;
    </description><Point><coordinates>-120.916879,40.060354,0</coordinates></Point></Placemark><Placemark><name>Axis-RoundMtnFresno</name><description>
    &lt;![CDATA[
    &lt;b&gt;Axis-RoundMtnFresno&lt;/b&gt;&lt;br&gt;
    County: Fresno CA&lt;br&gt;
    Pan/Azimuth: 48.50&lt;br&gt;
    &lt;a href="https://img.cdn.prod.alertwest.com/data/img/2332/2026/07/07/Round_Mtn_Fresno_1783433628_6516.jpg"&gt;Latest Camera Image&lt;/a&gt;
    ]]&gt;
    </description><Point><coordinates>-119.510727,36.818382,0</coordinates></Point></Placemark><Placemark><name>Axis-SYP</name><description>
    &lt;![CDATA[
    &lt;b&gt;Axis-SYP&lt;/b&gt;&lt;br&gt;
    County: SantaBarbara CA&lt;br&gt;
    Pan/Azimuth: 22.72&lt;br&gt;
    &lt;a href="https://img.cdn.prod.alertwest.com/data/img/2364/2026/07/07/Santa_Ynez_Peak_1783433626_8359.jpg"&gt;Latest Camera Image&lt;/a&gt;
    ]]&gt;
    </description><Point><coordinates>-119.978905,34.527107,0</coordinates></Point></Placemark><Placemark><name>Axis-TwinSistersNorth1</name><description>
    &lt;![CDATA[
    &lt;b&gt;Axis-TwinSistersNorth1&lt;/b&gt;&lt;br&gt;
    County: Solano CA&lt;br&gt;
    Pan/Azimuth: 219.18&lt;br&gt;
    &lt;a href="https://img.cdn.prod.alertwest.com/data/img/2466/2026/07/07/Twin_Sisters_North_1_1783433625_1389.jpg"&gt;Latest Camera Image&lt;/a&gt;
    ]]&gt;
    </description><Point><coordinates>-122.168503,38.303200,0</coordinates></Point></Placemark><Placemark><name>Axis-SanBrunoMtn1</name><description>
    &lt;![CDATA[
    &lt;b&gt;Axis-SanBrunoMtn1&lt;/b&gt;&lt;br&gt;
    County: SanMateo CA&lt;br&gt;
    Pan/Azimuth: 125.41&lt;br&gt;
    &lt;a href="https://img.cdn.prod.alertwest.com/data/img/4706/2026/07/07/San_Bruno_Mountain_1783433637_8382.jpg"&gt;Latest Camera Image&lt;/a&gt;
    ]]&gt;
    </description><Point><coordinates>-122.435452,37.687371,0</coordinates></Point></Placemark><Placemark><name>Axis-Idyllwild2</name><description>
    &lt;![CDATA[
    &lt;b&gt;Axis-Idyllwild2&lt;/b&gt;&lt;br&gt;
    County: Riverside CA&lt;br&gt;
    Pan/Azimuth: 28.32&lt;br&gt;
    &lt;a href="https://img.cdn.prod.alertwest.com/data/img/2036/2026/07/07/Idyllwild_2_1783433615_2580.jpg"&gt;Latest Camera Image&lt;/a&gt;
    ]]&gt;
    </description><Point><coordinates>-116.750679,33.725632,0</coordinates></Point></Placemark><Placemark><name>Axis-BaldMtnLaPorte</name><description>
    &lt;![CDATA[
    &lt;b&gt;Axis-BaldMtnLaPorte&lt;/b&gt;&lt;br&gt;
    County: Plumas CA&lt;br&gt;
    Pan/Azimuth: 186.96&lt;br&gt;
    &lt;a href="https://img.cdn.prod.alertwest.com/data/img/1612/2026/07/07/Bald_Mtn_La_Porte_1783433625_5209.jpg"&gt;Latest Camera Image&lt;/a&gt;
    ]]&gt;
    </description><Point><coordinates>-120.980133,39.696880,0</coordinates></Point></Placemark><Placemark><name>Axis-MinnesotaHill2</name><description>
    &lt;![CDATA[
    &lt;b&gt;Axis-MinnesotaHill2&lt;/b&gt;&lt;br&gt;
    County: SanDiego CA&lt;br&gt;
    Pan/Azimuth: 134.04&lt;br&gt;
    &lt;a href="https://img.cdn.prod.alertwest.com/data/img/2126/2026/07/07/Minnesota_Hill_Fallbrook_2_1783433626_9943.jpg"&gt;Latest Camera Image&lt;/a&gt;
    ]]&gt;
    </description><Point><coordinates>-117.245743,33.383991,0</coordinates></Point></Placemark><Placemark><name>Axis-BlueRidge2</name><description>
    &lt;![CDATA[
    &lt;b&gt;Axis-BlueRidge2&lt;/b&gt;&lt;br&gt;
    County: Tulare CA&lt;br&gt;
    Pan/Azimuth: 114.70&lt;br&gt;
    &lt;a href="https://img.cdn.prod.alertwest.com/data/img/1841/2026/07/07/Blue_Ridge_2_1783433601_9004.jpg"&gt;Latest Camera Image&lt;/a&gt;
    ]]&gt;
    </description><Point><coordinates>-118.839729,36.286610,0</coordinates></Point></Placemark><Placemark><name>Axis-CapellValley2</name><description>
    &lt;![CDATA[
    &lt;b&gt;Axis-CapellValley2&lt;/b&gt;&lt;br&gt;
    County: Napa CA&lt;br&gt;
    Pan/Azimuth: 177.37&lt;br&gt;
    &lt;a href="https://img.cdn.prod.alertwest.com/data/img/1878/2026/07/07/Capell_Valley_2_1783433626_6356.jpg"&gt;Latest Camera Image&lt;/a&gt;
    ]]&gt;
    </description><Point><coordinates>-122.224709,38.488029,0</coordinates></Point></Placemark><Placemark><name>Axis-Cottonwood</name><description>
    &lt;![CDATA[
    &lt;b&gt;Axis-Cottonwood&lt;/b&gt;&lt;br&gt;
    County: Idaho ID&lt;br&gt;
    Pan/Azimuth: 245.70&lt;br&gt;
    &lt;a href="https://img.cdn.prod.alertwest.com/data/img/9236/2026/07/07/Cottonwood_1783433625_8857.jpg"&gt;Latest Camera Image&lt;/a&gt;
    ]]&gt;
    </description><Point><coordinates>-116.465098,46.069203,0</coordinates></Point></Placemark><Placemark><name>Axis-OnyxPeakSouth2</name><description>
    &lt;![CDATA[
    &lt;b&gt;Axis-OnyxPeakSouth2&lt;/b&gt;&lt;br&gt;
    County: SanBernardino CA&lt;br&gt;
    Pan/Azimuth: 239.98&lt;br&gt;
    &lt;a href="https://img.cdn.prod.alertwest.com/data/img/2688/2026/07/07/Onyx_Peak_South_2_1783433635_1220.jpg"&gt;Latest Camera Image&lt;/a&gt;
    ]]&gt;
    </description><Point><coordinates>-116.709415,34.191277,0</coordinates></Point></Placemark><Placemark><name>Axis-DeadmansRidgeWest</name><description>
    &lt;![CDATA[
    &lt;b&gt;Axis-DeadmansRidgeWest&lt;/b&gt;&lt;br&gt;
    County: SanBernardino CA&lt;br&gt;
    Pan/Azimuth: 272.94&lt;br&gt;
    &lt;a href="https://img.cdn.prod.alertwest.com/data/img/1930/2026/07/07/Deadmans_Ridge_West_1783433632_6923.jpg"&gt;Latest Camera Image&lt;/a&gt;
    ]]&gt;
    </description><Point><coordinates>-116.792107,34.232967,0</coordinates></Point></Placemark><Placemark><name>Axis-TelegraphHill2</name><description>
    &lt;![CDATA[
    &lt;b&gt;Axis-TelegraphHill2&lt;/b&gt;&lt;br&gt;
    County: Tuolumne CA&lt;br&gt;
    Pan/Azimuth: 27.78&lt;br&gt;
    &lt;a href="https://img.cdn.prod.alertwest.com/data/img/2445/2026/07/07/Telegraph_Hill_2_1783433629_7976.jpg"&gt;Latest Camera Image&lt;/a&gt;
    ]]&gt;
    </description><Point><coordinates>-120.351799,38.030800,0</coordinates></Point></Placemark><Placemark><name>Axis-BaldMtnTower1</name><description>
    &lt;![CDATA[
    &lt;b&gt;Axis-BaldMtnTower1&lt;/b&gt;&lt;br&gt;
    County: LosAngeles CA&lt;br&gt;
    Pan/Azimuth: 258.80&lt;br&gt;
    &lt;a href="https://img.cdn.prod.alertwest.com/data/img/8563/2026/07/07/Bald_Mtn_Tower_LAC_1_1783433595_1002.jpg"&gt;Latest Camera Image&lt;/a&gt;
    ]]&gt;
    </description><Point><coordinates>-118.728000,34.744700,0</coordinates></Point></Placemark><Placemark><name>Axis-LosPinosNorth</name><description>
    &lt;![CDATA[
    &lt;b&gt;Axis-LosPinosNorth&lt;/b&gt;&lt;br&gt;
    County: SanDiego CA&lt;br&gt;
    Pan/Azimuth: 288.07&lt;br&gt;
    &lt;a href="https://img.cdn.prod.alertwest.com/data/img/2086/2026/07/07/Los_Pinos_North_1783433609_1925.jpg"&gt;Latest Camera Image&lt;/a&gt;
    ]]&gt;
    </description><Point><coordinates>-116.577751,32.734673,0</coordinates></Point></Placemark><Placemark><name>Axis-MojaveAdmin2</name><description>
    &lt;![CDATA[
    &lt;b&gt;Axis-MojaveAdmin2&lt;/b&gt;&lt;br&gt;
    County: Kern CA&lt;br&gt;
    Pan/Azimuth: 63.47&lt;br&gt;
    &lt;a href="https://img.cdn.prod.alertwest.com/data/img/2134/2026/07/07/Mojave_Admin_2_1783433597_3218.jpg"&gt;Latest Camera Image&lt;/a&gt;
    ]]&gt;
    </description><Point><coordinates>-118.162468,35.046242,0</coordinates></Point></Placemark><Placemark><name>Axis-Canyonback2</name><description>
    &lt;![CDATA[
    &lt;b&gt;Axis-Canyonback2&lt;/b&gt;&lt;br&gt;
    County: LosAngeles CA&lt;br&gt;
    Pan/Azimuth: 148.38&lt;br&gt;
    &lt;a href="https://img.cdn.prod.alertwest.com/data/img/1876/2026/07/07/Canyonback_Trail_TCM_2_1783433608_9155.jpg"&gt;Latest Camera Image&lt;/a&gt;
    ]]&gt;
    </description><Point><coordinates>-118.497704,34.098499,0</coordinates></Point></Placemark><Placemark><name>Axis-SanBenitoMtn1</name><description>
    &lt;![CDATA[
    &lt;b&gt;Axis-SanBenitoMtn1&lt;/b&gt;&lt;br&gt;
    County: SanBenito CA&lt;br&gt;
    Pan/Azimuth: 282.13&lt;br&gt;
    &lt;a href="https://img.cdn.prod.alertwest.com/data/img/2739/2026/07/07/San_Benito_Mtn_1_1783433629_2816.jpg"&gt;Latest Camera Image&lt;/a&gt;
    ]]&gt;
    </description><Point><coordinates>-120.643700,36.368728,0</coordinates></Point></Placemark><Placemark><name>Axis-Hamilton2</name><description>
    &lt;![CDATA[
    &lt;b&gt;Axis-Hamilton2&lt;/b&gt;&lt;br&gt;
    County: Glenn CA&lt;br&gt;
    Pan/Azimuth: 325.04&lt;br&gt;
    &lt;a href="https://img.cdn.prod.alertwest.com/data/img/1665/2026/07/07/Hamilton_City_2_1783433639_8747.jpg"&gt;Latest Camera Image&lt;/a&gt;
    ]]&gt;
    </description><Point><coordinates>-122.008545,39.737679,0</coordinates></Point></Placemark><Placemark><name>Axis-Bodega1</name><description>
    &lt;![CDATA[
    &lt;b&gt;Axis-Bodega1&lt;/b&gt;&lt;br&gt;
    County: Sonoma CA&lt;br&gt;
    Pan/Azimuth: 72.58&lt;br&gt;
    &lt;a href="https://img.cdn.prod.alertwest.com/data/img/2759/2026/07/07/Bodega_Bay_1783433617_4723.jpg"&gt;Latest Camera Image&lt;/a&gt;
    ]]&gt;
    </description><Point><coordinates>-123.020507,38.341701,0</coordinates></Point></Placemark><Placemark><name>Axis-PoleMt</name><description>
    &lt;![CDATA[
    &lt;b&gt;Axis-PoleMt&lt;/b&gt;&lt;br&gt;
    County: Sonoma CA&lt;br&gt;
    Pan/Azimuth: 116.13&lt;br&gt;
    &lt;a href="https://img.cdn.prod.alertwest.com/data/img/2266/2026/07/07/Pole_Mtn_Lookout_1_1783433636_1180.jpg"&gt;Latest Camera Image&lt;/a&gt;
    ]]&gt;
    </description><Point><coordinates>-123.120003,38.505402,0</coordinates></Point></Placemark><Placemark><name>Axis-Kingsville</name><description>
    &lt;![CDATA[
    &lt;b&gt;Axis-Kingsville&lt;/b&gt;&lt;br&gt;
    County: eldorado CA&lt;br&gt;
    Pan/Azimuth: 65.24&lt;br&gt;
    &lt;a href="https://img.cdn.prod.alertwest.com/data/img/2053/2026/07/07/Kingsville_1783433632_5833.jpg"&gt;Latest Camera Image&lt;/a&gt;
    ]]&gt;
    </description><Point><coordinates>-120.878822,38.677158,0</coordinates></Point></Placemark><Placemark><name>Axis-HiMountain2</name><description>
    &lt;![CDATA[
    &lt;b&gt;Axis-HiMountain2&lt;/b&gt;&lt;br&gt;
    County: SanLuisObispo CA&lt;br&gt;
    Pan/Azimuth: &lt;br&gt;
    &lt;a href=""&gt;Latest Camera Image&lt;/a&gt;
    ]]&gt;
    </description><Point><coordinates>-120.425179,35.259979,0</coordinates></Point></Placemark><Placemark><name>Axis-BlackMtnLassen1</name><description>
    &lt;![CDATA[
    &lt;b&gt;Axis-BlackMtnLassen1&lt;/b&gt;&lt;br&gt;
    County: Lassen CA&lt;br&gt;
    Pan/Azimuth: 262.99&lt;br&gt;
    &lt;a href="https://img.cdn.prod.alertwest.com/data/img/2669/2026/07/07/Black_Mtn_Lassen_1_1783433608_9478.jpg"&gt;Latest Camera Image&lt;/a&gt;
    ]]&gt;
    </description><Point><coordinates>-120.317476,40.116821,0</coordinates></Point></Placemark><Placemark><name>Axis-HuntingtonLake1</name><description>
    &lt;![CDATA[
    &lt;b&gt;Axis-HuntingtonLake1&lt;/b&gt;&lt;br&gt;
    County: Fresno CA&lt;br&gt;
    Pan/Azimuth: 29.15&lt;br&gt;
    &lt;a href="https://img.cdn.prod.alertwest.com/data/img/2031/2026/07/07/Huntington_Lake_1_1783433625_8328.jpg"&gt;Latest Camera Image&lt;/a&gt;
    ]]&gt;
    </description><Point><coordinates>-119.238586,37.218224,0</coordinates></Point></Placemark><Placemark><name>Axis-Briar2</name><description>
    &lt;![CDATA[
    &lt;b&gt;Axis-Briar2&lt;/b&gt;&lt;br&gt;
    County: LosAngeles CA&lt;br&gt;
    Pan/Azimuth: 22.47&lt;br&gt;
    &lt;a href="https://img.cdn.prod.alertwest.com/data/img/2416/2026/07/07/Star_Mtn_2_1783433613_9538.jpg"&gt;Latest Camera Image&lt;/a&gt;
    ]]&gt;
    </description><Point><coordinates>-118.392502,34.118900,0</coordinates></Point></Placemark><Placemark><name>Axis-LaHabra2</name><description>
    &lt;![CDATA[
    &lt;b&gt;Axis-LaHabra2&lt;/b&gt;&lt;br&gt;
    County: LosAngeles CA&lt;br&gt;
    Pan/Azimuth: 80.83&lt;br&gt;
    &lt;a href="https://img.cdn.prod.alertwest.com/data/img/2293/2026/07/07/Rancho_La_Habra_2_1783433628_2754.jpg"&gt;Latest Camera Image&lt;/a&gt;
    ]]&gt;
    </description><Point><coordinates>-117.942902,33.973301,0</coordinates></Point></Placemark><Placemark><name>Axis-UpperLake2</name><description>
    &lt;![CDATA[
    &lt;b&gt;Axis-UpperLake2&lt;/b&gt;&lt;br&gt;
    County: Lake CA&lt;br&gt;
    Pan/Azimuth: 163.89&lt;br&gt;
    &lt;a href="https://img.cdn.prod.alertwest.com/data/img/2542/2026/07/07/Upper_Lake_2_1783433634_6862.jpg"&gt;Latest Camera Image&lt;/a&gt;
    ]]&gt;
    </description><Point><coordinates>-122.927950,39.174330,0</coordinates></Point></Placemark><Placemark><name>Axis-RedCorral</name><description>
    &lt;![CDATA[
    &lt;b&gt;Axis-RedCorral&lt;/b&gt;&lt;br&gt;
    County: Amador CA&lt;br&gt;
    Pan/Azimuth: 189.92&lt;br&gt;
    &lt;a href="https://img.cdn.prod.alertwest.com/data/img/2300/2026/07/07/Red_Corral_Rd_1_1783433635_1270.jpg"&gt;Latest Camera Image&lt;/a&gt;
    ]]&gt;
    </description><Point><coordinates>-120.595154,38.412952,0</coordinates></Point></Placemark><Placemark><name>Axis-Edith2</name><description>
    &lt;![CDATA[
    &lt;b&gt;Axis-Edith2&lt;/b&gt;&lt;br&gt;
    County: Mariposa CA&lt;br&gt;
    Pan/Azimuth: 357.16&lt;br&gt;
    &lt;a href="https://img.cdn.prod.alertwest.com/data/img/1954/2026/07/07/Edith_Hill_2_1783433626_5089.jpg"&gt;Latest Camera Image&lt;/a&gt;
    ]]&gt;
    </description><Point><coordinates>-120.120667,37.747513,0</coordinates></Point></Placemark><Placemark><name>Axis-Sagehen5</name><description>
    &lt;![CDATA[
    &lt;b&gt;Axis-Sagehen5&lt;/b&gt;&lt;br&gt;
    County: Nevada CA&lt;br&gt;
    Pan/Azimuth: 131.35&lt;br&gt;
    &lt;a href="https://img.cdn.prod.alertwest.com/data/img/2340/2026/07/07/Sage_Hen_1783433634_9986.jpg"&gt;Latest Camera Image&lt;/a&gt;
    ]]&gt;
    </description><Point><coordinates>-120.311867,39.426414,0</coordinates></Point></Placemark><Placemark><name>Axis-BuffaloBumpSouth</name><description>
    &lt;![CDATA[
    &lt;b&gt;Axis-BuffaloBumpSouth&lt;/b&gt;&lt;br&gt;
    County: SanDiego CA&lt;br&gt;
    Pan/Azimuth: 110.26&lt;br&gt;
    &lt;a href="https://img.cdn.prod.alertwest.com/data/img/2540/2026/07/07/Buffalo_Bump_South_1783433627_8678.jpg"&gt;Latest Camera Image&lt;/a&gt;
    ]]&gt;
    </description><Point><coordinates>-117.382530,33.428371,0</coordinates></Point></Placemark><Placemark><name>Axis-Sierra</name><description>
    &lt;![CDATA[
    &lt;b&gt;Axis-Sierra&lt;/b&gt;&lt;br&gt;
    County: El Dorado CA&lt;br&gt;
    Pan/Azimuth: 18.19&lt;br&gt;
    &lt;a href="https://img.cdn.prod.alertwest.com/data/img/2380/2026/07/07/Sierra_at_Tahoe_1783433630_9787.jpg"&gt;Latest Camera Image&lt;/a&gt;
    ]]&gt;
    </description><Point><coordinates>-120.062912,38.795753,0</coordinates></Point></Placemark><Placemark><name>Axis-Brookdale</name><description>
    &lt;![CDATA[
    &lt;b&gt;Axis-Brookdale&lt;/b&gt;&lt;br&gt;
    County: SantaCruz CA&lt;br&gt;
    Pan/Azimuth: 193.88&lt;br&gt;
    &lt;a href="https://img.cdn.prod.alertwest.com/data/img/1859/2026/07/07/Brookdale_1783433635_2146.jpg"&gt;Latest Camera Image&lt;/a&gt;
    ]]&gt;
    </description><Point><coordinates>-122.104172,37.113949,0</coordinates></Point></Placemark><Placemark><name>Axis-PlatteMtn2</name><description>
    &lt;![CDATA[
    &lt;b&gt;Axis-PlatteMtn2&lt;/b&gt;&lt;br&gt;
    County: Butte CA&lt;br&gt;
    Pan/Azimuth: 10.32&lt;br&gt;
    &lt;a href="https://img.cdn.prod.alertwest.com/data/img/1700/2026/07/07/Platte_Mtn_2_1783433621_5255.jpg"&gt;Latest Camera Image&lt;/a&gt;
    ]]&gt;
    </description><Point><coordinates>-121.647499,39.935921,0</coordinates></Point></Placemark><Placemark><name>Axis-Hornbrook1</name><description>
    &lt;![CDATA[
    &lt;b&gt;Axis-Hornbrook1&lt;/b&gt;&lt;br&gt;
    County: Siskiyou CA&lt;br&gt;
    Pan/Azimuth: 334.62&lt;br&gt;
    &lt;a href="https://img.cdn.prod.alertwest.com/data/img/1765/2026/07/07/Hornbrook_1_1783433637_9135.jpg"&gt;Latest Camera Image&lt;/a&gt;
    ]]&gt;
    </description><Point><coordinates>-122.557403,41.929877,0</coordinates></Point></Placemark><Placemark><name>Axis-Winters2</name><description>
    &lt;![CDATA[
    &lt;b&gt;Axis-Winters2&lt;/b&gt;&lt;br&gt;
    County: Yolo CA&lt;br&gt;
    Pan/Azimuth: 241.60&lt;br&gt;
    &lt;a href="https://img.cdn.prod.alertwest.com/data/img/2517/2026/07/07/Winters_2_1783433638_6487.jpg"&gt;Latest Camera Image&lt;/a&gt;
    ]]&gt;
    </description><Point><coordinates>-121.983101,38.521198,0</coordinates></Point></Placemark><Placemark><name>Axis-QuailRidge1</name><description>
    &lt;![CDATA[
    &lt;b&gt;Axis-QuailRidge1&lt;/b&gt;&lt;br&gt;
    County: Plumas CA&lt;br&gt;
    Pan/Azimuth: 83.23&lt;br&gt;
    &lt;a href="https://img.cdn.prod.alertwest.com/data/img/1702/2026/07/07/Quail_Ridge_1_1783433627_3233.jpg"&gt;Latest Camera Image&lt;/a&gt;
    ]]&gt;
    </description><Point><coordinates>-120.942520,39.952881,0</coordinates></Point></Placemark><Placemark><name>Axis-BlueCanyon</name><description>
    &lt;![CDATA[
    &lt;b&gt;Axis-BlueCanyon&lt;/b&gt;&lt;br&gt;
    County: Placer CA&lt;br&gt;
    Pan/Azimuth: 140.07&lt;br&gt;
    &lt;a href="https://img.cdn.prod.alertwest.com/data/img/1620/2026/07/07/Blue_Canyon_1783433632_7785.jpg"&gt;Latest Camera Image&lt;/a&gt;
    ]]&gt;
    </description><Point><coordinates>-120.721222,39.255951,0</coordinates></Point></Placemark><Placemark><name>Axis-LittleMountain1</name><description>
    &lt;![CDATA[
    &lt;b&gt;Axis-LittleMountain1&lt;/b&gt;&lt;br&gt;
    County: SanBernardino CA&lt;br&gt;
    Pan/Azimuth: 310.52&lt;br&gt;
    &lt;a href="https://img.cdn.prod.alertwest.com/data/img/2078/2026/07/07/Little_Mountain_1_1783433637_9035.jpg"&gt;Latest Camera Image&lt;/a&gt;
    ]]&gt;
    </description><Point><coordinates>-117.315002,34.159000,0</coordinates></Point></Placemark><Placemark><name>Axis-RadioHill1</name><description>
    &lt;![CDATA[
    &lt;b&gt;Axis-RadioHill1&lt;/b&gt;&lt;br&gt;
    County: Plumas CA&lt;br&gt;
    Pan/Azimuth: 280.52&lt;br&gt;
    &lt;a href="https://img.cdn.prod.alertwest.com/data/img/1704/2026/07/07/Radio_Hill_1_1783433640_4460.jpg"&gt;Latest Camera Image&lt;/a&gt;
    ]]&gt;
    </description><Point><coordinates>-120.928932,39.940388,0</coordinates></Point></Placemark><Placemark><name>Axis-Martis</name><description>
    &lt;![CDATA[
    &lt;b&gt;Axis-Martis&lt;/b&gt;&lt;br&gt;
    County: Placer CA&lt;br&gt;
    Pan/Azimuth: 214.30&lt;br&gt;
    &lt;a href="https://img.cdn.prod.alertwest.com/data/img/2100/2026/07/02/Martis_Peak_1783020299_4319.jpg"&gt;Latest Camera Image&lt;/a&gt;
    ]]&gt;
    </description><Point><coordinates>-120.036003,39.292000,0</coordinates></Point></Placemark><Placemark><name>Axis-Freeman1</name><description>
    &lt;![CDATA[
    &lt;b&gt;Axis-Freeman1&lt;/b&gt;&lt;br&gt;
    County: Mendocino CA&lt;br&gt;
    Pan/Azimuth: 151.61&lt;br&gt;
    &lt;a href="https://img.cdn.prod.alertwest.com/data/img/2725/2026/07/07/Freeman_1_1783433638_2220.jpg"&gt;Latest Camera Image&lt;/a&gt;
    ]]&gt;
    </description><Point><coordinates>-123.753348,39.943947,0</coordinates></Point></Placemark><Placemark><name>Axis-ShaferButte</name><description>
    &lt;![CDATA[
    &lt;b&gt;Axis-ShaferButte&lt;/b&gt;&lt;br&gt;
    County: Boise ID&lt;br&gt;
    Pan/Azimuth: 228.34&lt;br&gt;
    &lt;a href="https://img.cdn.prod.alertwest.com/data/img/12172/2026/07/07/Shafer_Butte_1783433623_5706.jpg"&gt;Latest Camera Image&lt;/a&gt;
    ]]&gt;
    </description><Point><coordinates>-116.088226,43.771214,0</coordinates></Point></Placemark><Placemark><name>Axis-PineMountainLA1</name><description>
    &lt;![CDATA[
    &lt;b&gt;Axis-PineMountainLA1&lt;/b&gt;&lt;br&gt;
    County: LosAngeles CA&lt;br&gt;
    Pan/Azimuth: 291.84&lt;br&gt;
    &lt;a href="https://img.cdn.prod.alertwest.com/data/img/2718/2026/07/07/Pine_Mountain_Los_Angeles_1_1783433635_4209.jpg"&gt;Latest Camera Image&lt;/a&gt;
    ]]&gt;
    </description><Point><coordinates>-117.902197,34.223439,0</coordinates></Point></Placemark><Placemark><name>Axis-CowMtn2</name><description>
    &lt;![CDATA[
    &lt;b&gt;Axis-CowMtn2&lt;/b&gt;&lt;br&gt;
    County: Lake CA&lt;br&gt;
    Pan/Azimuth: 121.15&lt;br&gt;
    &lt;a href="https://img.cdn.prod.alertwest.com/data/img/1637/2026/07/07/Cow_Mtn_2_1783433632_1986.jpg"&gt;Latest Camera Image&lt;/a&gt;
    ]]&gt;
    </description><Point><coordinates>-123.076797,39.130699,0</coordinates></Point></Placemark><Placemark><name>Axis-WiedemannHill</name><description>
    &lt;![CDATA[
    &lt;b&gt;Axis-WiedemannHill&lt;/b&gt;&lt;br&gt;
    County: Alameda CA&lt;br&gt;
    Pan/Azimuth: 188.68&lt;br&gt;
    &lt;a href="https://img.cdn.prod.alertwest.com/data/img/2502/2026/07/07/Wiedemann_Hill_1783433628_2574.jpg"&gt;Latest Camera Image&lt;/a&gt;
    ]]&gt;
    </description><Point><coordinates>-121.994751,37.738091,0</coordinates></Point></Placemark><Placemark><name>Axis-HangingTree2</name><description>
    &lt;![CDATA[
    &lt;b&gt;Axis-HangingTree2&lt;/b&gt;&lt;br&gt;
    County: SanLuisObispo CA&lt;br&gt;
    Pan/Azimuth: 211.42&lt;br&gt;
    &lt;a href="https://img.cdn.prod.alertwest.com/data/img/2006/2026/07/07/Hanging_Tree_2_1783433631_2505.jpg"&gt;Latest Camera Image&lt;/a&gt;
    ]]&gt;
    </description><Point><coordinates>-120.666908,35.573570,0</coordinates></Point></Placemark><Placemark><name>Axis-JordanPeak1</name><description>
    &lt;![CDATA[
    &lt;b&gt;Axis-JordanPeak1&lt;/b&gt;&lt;br&gt;
    County: Tulare CA&lt;br&gt;
    Pan/Azimuth: 307.01&lt;br&gt;
    &lt;a href="https://img.cdn.prod.alertwest.com/data/img/11028/2026/02/18/Jordan_Peak_1_1771453469_7834.jpg"&gt;Latest Camera Image&lt;/a&gt;
    ]]&gt;
    </description><Point><coordinates>-118.598204,36.181421,0</coordinates></Point></Placemark><Placemark><name>Axis-EastQuincy</name><description>
    &lt;![CDATA[
    &lt;b&gt;Axis-EastQuincy&lt;/b&gt;&lt;br&gt;
    County: Plumas CA&lt;br&gt;
    Pan/Azimuth: 354.47&lt;br&gt;
    &lt;a href="https://img.cdn.prod.alertwest.com/data/img/1643/2026/07/07/East_Quincy_1783433630_5493.jpg"&gt;Latest Camera Image&lt;/a&gt;
    ]]&gt;
    </description><Point><coordinates>-120.887642,39.912891,0</coordinates></Point></Placemark><Placemark><name>Axis-MtDiabloWest</name><description>
    &lt;![CDATA[
    &lt;b&gt;Axis-MtDiabloWest&lt;/b&gt;&lt;br&gt;
    County: ContraCosta CA&lt;br&gt;
    Pan/Azimuth: 118.53&lt;br&gt;
    &lt;a href="https://img.cdn.prod.alertwest.com/data/img/2158/2026/07/07/Mt_Diablo_West_1783433601_8451.jpg"&gt;Latest Camera Image&lt;/a&gt;
    ]]&gt;
    </description><Point><coordinates>-121.919083,37.881699,0</coordinates></Point></Placemark><Placemark><name>Axis-BearMtnFresno1</name><description>
    &lt;![CDATA[
    &lt;b&gt;Axis-BearMtnFresno1&lt;/b&gt;&lt;br&gt;
    County: Fresno CA&lt;br&gt;
    Pan/Azimuth: 113.28&lt;br&gt;
    &lt;a href="https://img.cdn.prod.alertwest.com/data/img/1814/2026/07/07/Bear_Mtn_Fresno_1_1783433633_1866.jpg"&gt;Latest Camera Image&lt;/a&gt;
    ]]&gt;
    </description><Point><coordinates>-119.280029,36.746307,0</coordinates></Point></Placemark><Placemark><name>Axis-MoccasinPeak</name><description>
    &lt;![CDATA[
    &lt;b&gt;Axis-MoccasinPeak&lt;/b&gt;&lt;br&gt;
    County: Tuolumne CA&lt;br&gt;
    Pan/Azimuth: 26.92&lt;br&gt;
    &lt;a href="https://img.cdn.prod.alertwest.com/data/img/2129/2026/07/07/Moccasin_Peak_1_1783433583_7120.jpg"&gt;Latest Camera Image&lt;/a&gt;
    ]]&gt;
    </description><Point><coordinates>-120.328102,37.805199,0</coordinates></Point></Placemark><Placemark><name>Axis-RoundMtnModoc1</name><description>
    &lt;![CDATA[
    &lt;b&gt;Axis-RoundMtnModoc1&lt;/b&gt;&lt;br&gt;
    County: Siskiyou CA&lt;br&gt;
    Pan/Azimuth: 260.94&lt;br&gt;
    &lt;a href="https://img.cdn.prod.alertwest.com/data/img/4716/2026/07/07/Round_Mtn_Modoc_1_1783433618_9459.jpg"&gt;Latest Camera Image&lt;/a&gt;
    ]]&gt;
    </description><Point><coordinates>-121.462380,41.427350,0</coordinates></Point></Placemark><Placemark><name>Axis-CalaverasNV</name><description>
    &lt;![CDATA[
    &lt;b&gt;Axis-CalaverasNV&lt;/b&gt;&lt;br&gt;
    County: Storey NV&lt;br&gt;
    Pan/Azimuth: 356.29&lt;br&gt;
    &lt;a href="https://img.cdn.prod.alertwest.com/data/img/12184/2026/07/07/Calaveras_NV_1783433595_8648.jpg"&gt;Latest Camera Image&lt;/a&gt;
    ]]&gt;
    </description><Point><coordinates>-119.649605,39.356606,0</coordinates></Point></Placemark><Placemark><name>Axis-SignalPeakNV1</name><description>
    &lt;![CDATA[
    &lt;b&gt;Axis-SignalPeakNV1&lt;/b&gt;&lt;br&gt;
    County: Nevada CA&lt;br&gt;
    Pan/Azimuth: 272.05&lt;br&gt;
    &lt;a href="https://img.cdn.prod.alertwest.com/data/img/1722/2026/07/07/Signal_Peak_NVCO_1_1783433636_1386.jpg"&gt;Latest Camera Image&lt;/a&gt;
    ]]&gt;
    </description><Point><coordinates>-120.535828,39.338840,0</coordinates></Point></Placemark><Placemark><name>Axis-PierceMtn1</name><description>
    &lt;![CDATA[
    &lt;b&gt;Axis-PierceMtn1&lt;/b&gt;&lt;br&gt;
    County: Humboldt CA&lt;br&gt;
    Pan/Azimuth: 187.08&lt;br&gt;
    &lt;a href="https://img.cdn.prod.alertwest.com/data/img/2250/2026/07/07/Pierce_Mtn_1_1783433630_9934.jpg"&gt;Latest Camera Image&lt;/a&gt;
    ]]&gt;
    </description><Point><coordinates>-124.120468,40.417099,0</coordinates></Point></Placemark><Placemark><name>Axis-DuncanRanch1</name><description>
    &lt;![CDATA[
    &lt;b&gt;Axis-DuncanRanch1&lt;/b&gt;&lt;br&gt;
    County: Kern CA&lt;br&gt;
    Pan/Azimuth: 109.41&lt;br&gt;
    &lt;a href="https://img.cdn.prod.alertwest.com/data/img/1947/2026/07/07/Duncan_Ranch_1_1783433610_3473.jpg"&gt;Latest Camera Image&lt;/a&gt;
    ]]&gt;
    </description><Point><coordinates>-120.179970,35.777916,0</coordinates></Point></Placemark><Placemark><name>Axis-SeiglerMtn1</name><description>
    &lt;![CDATA[
    &lt;b&gt;Axis-SeiglerMtn1&lt;/b&gt;&lt;br&gt;
    County: Lake CA&lt;br&gt;
    Pan/Azimuth: 8.50&lt;br&gt;
    &lt;a href="https://img.cdn.prod.alertwest.com/data/img/1750/2026/07/07/Seigler_Mtn_1_1783433625_5393.jpg"&gt;Latest Camera Image&lt;/a&gt;
    ]]&gt;
    </description><Point><coordinates>-122.709686,38.873997,0</coordinates></Point></Placemark><Placemark><name>Axis-PressonHill1</name><description>
    &lt;![CDATA[
    &lt;b&gt;Axis-PressonHill1&lt;/b&gt;&lt;br&gt;
    County: SantaClara CA&lt;br&gt;
    Pan/Azimuth: 246.17&lt;br&gt;
    &lt;a href="https://img.cdn.prod.alertwest.com/data/img/2277/2026/07/07/Presson_Hill_1_1783433639_4202.jpg"&gt;Latest Camera Image&lt;/a&gt;
    ]]&gt;
    </description><Point><coordinates>-121.926453,37.166565,0</coordinates></Point></Placemark><Placemark><name>Axis-AntelopeYreka2</name><description>
    &lt;![CDATA[
    &lt;b&gt;Axis-AntelopeYreka2&lt;/b&gt;&lt;br&gt;
    County: Siskiyou CA&lt;br&gt;
    Pan/Azimuth: 177.30&lt;br&gt;
    &lt;a href="https://img.cdn.prod.alertwest.com/data/img/1607/2026/07/07/Antelope_Mtn_Yreka_2_1783433635_1804.jpg"&gt;Latest Camera Image&lt;/a&gt;
    ]]&gt;
    </description><Point><coordinates>-122.624847,41.610207,0</coordinates></Point></Placemark><Placemark><name>Axis-Orcutt1</name><description>
    &lt;![CDATA[
    &lt;b&gt;Axis-Orcutt1&lt;/b&gt;&lt;br&gt;
    County: SantaBarbara CA&lt;br&gt;
    Pan/Azimuth: 262.93&lt;br&gt;
    &lt;a href="https://img.cdn.prod.alertwest.com/data/img/2225/2026/07/07/Orcutt_1_1783433637_3547.jpg"&gt;Latest Camera Image&lt;/a&gt;
    ]]&gt;
    </description><Point><coordinates>-120.505302,34.865398,0</coordinates></Point></Placemark><Placemark><name>Axis-Burdell</name><description>
    &lt;![CDATA[
    &lt;b&gt;Axis-Burdell&lt;/b&gt;&lt;br&gt;
    County: Marin CA&lt;br&gt;
    Pan/Azimuth: 342.97&lt;br&gt;
    &lt;a href="https://img.cdn.prod.alertwest.com/data/img/2153/2026/07/07/Mt_Burdell_1_1783433634_4655.jpg"&gt;Latest Camera Image&lt;/a&gt;
    ]]&gt;
    </description><Point><coordinates>-122.593246,38.149868,0</coordinates></Point></Placemark><Placemark><name>Axis-SantiagoPeakCalOESN</name><description>
    &lt;![CDATA[
    &lt;b&gt;Axis-SantiagoPeakCalOESN&lt;/b&gt;&lt;br&gt;
    County: Riverside CA&lt;br&gt;
    Pan/Azimuth: 343.13&lt;br&gt;
    &lt;a href="https://img.cdn.prod.alertwest.com/data/img/2369/2026/07/07/Santiago_Peak_CalOES_N_1783433637_3840.jpg"&gt;Latest Camera Image&lt;/a&gt;
    ]]&gt;
    </description><Point><coordinates>-117.534103,33.711151,0</coordinates></Point></Placemark><Placemark><name>Axis-PleasantsWest1</name><description>
    &lt;![CDATA[
    &lt;b&gt;Axis-PleasantsWest1&lt;/b&gt;&lt;br&gt;
    County: Orange CA&lt;br&gt;
    Pan/Azimuth: 187.83&lt;br&gt;
    &lt;a href="https://img.cdn.prod.alertwest.com/data/img/2263/2026/07/07/Pleasants_West_1_1783433630_4187.jpg"&gt;Latest Camera Image&lt;/a&gt;
    ]]&gt;
    </description><Point><coordinates>-117.623802,33.797199,0</coordinates></Point></Placemark><Placemark><name>Axis-Volcanoville</name><description>
    &lt;![CDATA[
    &lt;b&gt;Axis-Volcanoville&lt;/b&gt;&lt;br&gt;
    County: El Dorado CA&lt;br&gt;
    Pan/Azimuth: &lt;br&gt;
    &lt;a href=""&gt;Latest Camera Image&lt;/a&gt;
    ]]&gt;
    </description><Point><coordinates>-120.798836,38.980907,0</coordinates></Point></Placemark><Placemark><name>Axis-MtAukum2</name><description>
    &lt;![CDATA[
    &lt;b&gt;Axis-MtAukum2&lt;/b&gt;&lt;br&gt;
    County: eldorado CA&lt;br&gt;
    Pan/Azimuth: 94.90&lt;br&gt;
    &lt;a href="https://img.cdn.prod.alertwest.com/data/img/2149/2026/07/07/Mt_Aukum_2_1783433630_3433.jpg"&gt;Latest Camera Image&lt;/a&gt;
    ]]&gt;
    </description><Point><coordinates>-120.726982,38.573868,0</coordinates></Point></Placemark><Placemark><name>Axis-FishRockEast</name><description>
    &lt;![CDATA[
    &lt;b&gt;Axis-FishRockEast&lt;/b&gt;&lt;br&gt;
    County: Mendocino CA&lt;br&gt;
    Pan/Azimuth: 175.81&lt;br&gt;
    &lt;a href="https://img.cdn.prod.alertwest.com/data/img/1975/2026/07/07/Fish_Rock_East_1783433628_1623.jpg"&gt;Latest Camera Image&lt;/a&gt;
    ]]&gt;
    </description><Point><coordinates>-123.530296,38.834000,0</coordinates></Point></Placemark><Placemark><name>Axis-Peavine</name><description>
    &lt;![CDATA[
    &lt;b&gt;Axis-Peavine&lt;/b&gt;&lt;br&gt;
    County: Washoe NV&lt;br&gt;
    Pan/Azimuth: 360.19&lt;br&gt;
    &lt;a href="https://img.cdn.prod.alertwest.com/data/img/12169/2026/07/07/Peavine_Peak_NV_1783433628_3188.jpg"&gt;Latest Camera Image&lt;/a&gt;
    ]]&gt;
    </description><Point><coordinates>-119.939743,39.577221,0</coordinates></Point></Placemark><Placemark><name>Axis-MtVaca5</name><description>
    &lt;![CDATA[
    &lt;b&gt;Axis-MtVaca5&lt;/b&gt;&lt;br&gt;
    County: Napa CA&lt;br&gt;
    Pan/Azimuth: 196.66&lt;br&gt;
    &lt;a href="https://img.cdn.prod.alertwest.com/data/img/1684/2026/07/07/Mt_Vaca_5_1783433632_3548.jpg"&gt;Latest Camera Image&lt;/a&gt;
    ]]&gt;
    </description><Point><coordinates>-122.118202,38.414600,0</coordinates></Point></Placemark><Placemark><name>Axis-WolfMtn2</name><description>
    &lt;![CDATA[
    &lt;b&gt;Axis-WolfMtn2&lt;/b&gt;&lt;br&gt;
    County: Nevada CA&lt;br&gt;
    Pan/Azimuth: 98.74&lt;br&gt;
    &lt;a href="https://img.cdn.prod.alertwest.com/data/img/1747/2026/07/07/Wolf_Mtn_2_1783433638_9762.jpg"&gt;Latest Camera Image&lt;/a&gt;
    ]]&gt;
    </description><Point><coordinates>-121.099701,39.133999,0</coordinates></Point></Placemark><Placemark><name>Axis-GypsumCanyon1</name><description>
    &lt;![CDATA[
    &lt;b&gt;Axis-GypsumCanyon1&lt;/b&gt;&lt;br&gt;
    County: Orange CA&lt;br&gt;
    Pan/Azimuth: 151.22&lt;br&gt;
    &lt;a href="https://img.cdn.prod.alertwest.com/data/img/2003/2026/07/07/Gypsum_Canyon_1_1783433631_9051.jpg"&gt;Latest Camera Image&lt;/a&gt;
    ]]&gt;
    </description><Point><coordinates>-117.745430,33.893887,0</coordinates></Point></Placemark><Placemark><name>Axis-Williams1</name><description>
    &lt;![CDATA[
    &lt;b&gt;Axis-Williams1&lt;/b&gt;&lt;br&gt;
    County: Colusa CA&lt;br&gt;
    Pan/Azimuth: 256.13&lt;br&gt;
    &lt;a href="https://img.cdn.prod.alertwest.com/data/img/4705/2026/07/07/Williams_1783433637_7949.jpg"&gt;Latest Camera Image&lt;/a&gt;
    ]]&gt;
    </description><Point><coordinates>-122.164341,39.153058,0</coordinates></Point></Placemark><Placemark><name>Axis-Satterlee</name><description>
    &lt;![CDATA[
    &lt;b&gt;Axis-Satterlee&lt;/b&gt;&lt;br&gt;
    County: Humboldt CA&lt;br&gt;
    Pan/Azimuth: 351.95&lt;br&gt;
    &lt;a href="https://img.cdn.prod.alertwest.com/data/img/2098/2026/07/07/Mail_Ridge_Satterlee_1_1783433611_8889.jpg"&gt;Latest Camera Image&lt;/a&gt;
    ]]&gt;
    </description><Point><coordinates>-123.708305,40.202602,0</coordinates></Point></Placemark><Placemark><name>Axis-Flournoy</name><description>
    &lt;![CDATA[
    &lt;b&gt;Axis-Flournoy&lt;/b&gt;&lt;br&gt;
    County: Tehama CA&lt;br&gt;
    Pan/Azimuth: 272.51&lt;br&gt;
    &lt;a href="https://img.cdn.prod.alertwest.com/data/img/1742/2026/07/07/Flournoy_1783433616_2502.jpg"&gt;Latest Camera Image&lt;/a&gt;
    ]]&gt;
    </description><Point><coordinates>-122.340073,39.944614,0</coordinates></Point></Placemark><Placemark><name>Axis-KyleCanyon</name><description>
    &lt;![CDATA[
    &lt;b&gt;Axis-KyleCanyon&lt;/b&gt;&lt;br&gt;
    County: Clark NV&lt;br&gt;
    Pan/Azimuth: 261.38&lt;br&gt;
    &lt;a href="https://img.cdn.prod.alertwest.com/data/img/12206/2026/07/07/Kyle_Canyon_1783433601_9576.jpg"&gt;Latest Camera Image&lt;/a&gt;
    ]]&gt;
    </description><Point><coordinates>-115.563652,36.270847,0</coordinates></Point></Placemark><Placemark><name>STtest</name><description>
    &lt;![CDATA[
    &lt;b&gt;STtest&lt;/b&gt;&lt;br&gt;
    County:  CA&lt;br&gt;
    Pan/Azimuth: &lt;br&gt;
    &lt;a href=""&gt;Latest Camera Image&lt;/a&gt;
    ]]&gt;
    </description><Point><coordinates>-121.852100,39.802290,0</coordinates></Point></Placemark><Placemark><name>Axis-Henrietta2</name><description>
    &lt;![CDATA[
    &lt;b&gt;Axis-Henrietta2&lt;/b&gt;&lt;br&gt;
    County: SanBenito CA&lt;br&gt;
    Pan/Azimuth: 16.47&lt;br&gt;
    &lt;a href="https://img.cdn.prod.alertwest.com/data/img/2016/2026/07/07/Henrietta_Peak_2_1783433638_6986.jpg"&gt;Latest Camera Image&lt;/a&gt;
    ]]&gt;
    </description><Point><coordinates>-121.230103,36.903400,0</coordinates></Point></Placemark><Placemark><name>Axis-BaldwinHills2</name><description>
    &lt;![CDATA[
    &lt;b&gt;Axis-BaldwinHills2&lt;/b&gt;&lt;br&gt;
    County: LosAngeles CA&lt;br&gt;
    Pan/Azimuth: 0.00&lt;br&gt;
    &lt;a href="https://img.cdn.prod.alertwest.com/data/img/1806/2026/07/01/Baldwin_Hills_2_1782936516_2975.jpg"&gt;Latest Camera Image&lt;/a&gt;
    ]]&gt;
    </description><Point><coordinates>-118.363129,34.005314,0</coordinates></Point></Placemark><Placemark><name>Axis-PanocheMtn1</name><description>
    &lt;![CDATA[
    &lt;b&gt;Axis-PanocheMtn1&lt;/b&gt;&lt;br&gt;
    County: Fresno CA&lt;br&gt;
    Pan/Azimuth: 288.34&lt;br&gt;
    &lt;a href="https://img.cdn.prod.alertwest.com/data/img/2675/2026/07/07/Panoche_Mtn_1_1783433624_7928.jpg"&gt;Latest Camera Image&lt;/a&gt;
    ]]&gt;
    </description><Point><coordinates>-120.764717,36.725592,0</coordinates></Point></Placemark><Placemark><name>Axis-WhitakerMiddlePeak2</name><description>
    &lt;![CDATA[
    &lt;b&gt;Axis-WhitakerMiddlePeak2&lt;/b&gt;&lt;br&gt;
    County: LosAngeles CA&lt;br&gt;
    Pan/Azimuth: 18.94&lt;br&gt;
    &lt;a href="https://img.cdn.prod.alertwest.com/data/img/2605/2026/07/07/Whitaker_Middle_Peak_2_1783433617_1673.jpg"&gt;Latest Camera Image&lt;/a&gt;
    ]]&gt;
    </description><Point><coordinates>-118.740117,34.569444,0</coordinates></Point></Placemark><Placemark><name>Axis-Edith</name><description>
    &lt;![CDATA[
    &lt;b&gt;Axis-Edith&lt;/b&gt;&lt;br&gt;
    County: Mariposa CA&lt;br&gt;
    Pan/Azimuth: 142.85&lt;br&gt;
    &lt;a href="https://img.cdn.prod.alertwest.com/data/img/1953/2026/07/07/Edith_Hill_1_1783433631_6943.jpg"&gt;Latest Camera Image&lt;/a&gt;
    ]]&gt;
    </description><Point><coordinates>-120.120667,37.747513,0</coordinates></Point></Placemark><Placemark><name>Axis-Rockpile1</name><description>
    &lt;![CDATA[
    &lt;b&gt;Axis-Rockpile1&lt;/b&gt;&lt;br&gt;
    County: Sonoma CA&lt;br&gt;
    Pan/Azimuth: 225.82&lt;br&gt;
    &lt;a href="https://img.cdn.prod.alertwest.com/data/img/11024/2026/07/07/Rockpile_1_1783433600_4118.jpg"&gt;Latest Camera Image&lt;/a&gt;
    ]]&gt;
    </description><Point><coordinates>-123.053902,38.718899,0</coordinates></Point></Placemark>